NAME,ADDRESS,CITY,STATE,ZIP,TYPE,STATUS,POPULATION,COUNTY,LATITUDE,LONGITUDE,OWNER,BEDS,HELIPAD
EAST LOS ANGELES DOCTORS HOSPITAL,4060 WHITTIER BOULEVARD,LOS ANGELES,CA,90023,GENERAL ACUTE CARE,OPEN,127,LOS ANGELES,34.023647302,-118.184164805,PROPRIETARY,127,N
SOUTHERN CALIFORNIA HOSPITAL AT HOLLYWOOD,6245 DE LONGPRE AVENUE,HOLLYWOOD,CA,90028,GENERAL ACUTE CARE,OPEN,100,LOS ANGELES,34.0963913570001,-118.325234871,PROPRIETARY,100,N
LAKEWOOD REGIONAL MEDICAL CENTER,3700 EAST SOUTH STREET,LAKEWOOD,CA,90712,GENERAL ACUTE CARE,OPEN,172,LOS ANGELES,33.8597066200001,-118.148402965,PROPRIETARY,172,N
MONTEREY PARK HOSPITAL,900 SOUTH ATLANTIC BOULEVARD,MONTEREY PARK,CA,91754,GENERAL ACUTE CARE,OPEN,101,LOS ANGELES,34.0494660590001,-118.138262231,PROPRIETARY,101,N
SALINAS VALLEY MEMORIAL HOSPITAL,450 EAST ROMIE LANE,SALINAS,CA,93901,GENERAL ACUTE CARE,OPEN,269,MONTEREY,36.659030456,-121.645983804,GOVERNMENT - DISTRICT/AUTHORITY,269,N
DAUTERIVE HOSPITAL,600 N LEWIS AVE.,NEW IBERIA,LA,70563,GENERAL ACUTE CARE,OPEN,103,IBERIA,30.006906977,-91.794523853,PROPRIETARY,103,Y
CITIZENS MEDICAL CENTER,7939 HIGHWAY 165,COLUMBIA,LA,71418,GENERAL ACUTE CARE,OPEN,40,CALDWELL,32.0773298010001,-92.094448206,GOVERNMENT - DISTRICT/AUTHORITY,40,Y
COLLEGE MEDICAL CENTER,2776 PACIFIC AVENUE,LONG BEACH,CA,90806,GENERAL ACUTE CARE,OPEN,121,LOS ANGELES,33.8070928700001,-118.193389929,PROPRIETARY,121,N
KAISER FOUNDATION HOSPITAL - SAN LEANDRO,2500 MERCED STREET,SAN LEANDRO,CA,94577,GENERAL ACUTE CARE,OPEN,216,ALAMEDA,37.706406198,-122.164654518,NOT AVAILABLE,216,N
UPSON REGIONAL MEDICAL CENTER,801 W GORDON STREET,THOMASTON,GA,30286,GENERAL ACUTE CARE,OPEN,115,UPSON,32.886297701,-84.3365069879999,NOT AVAILABLE,115,N
PHOEBE SUMTER MEDICAL CENTER,126 HIGHWAY 280 W,AMERICUS,GA,31719,GENERAL ACUTE CARE,OPEN,76,SUMTER,32.0669623380001,-84.2560501999999,NOT AVAILABLE,76,Y
SOUTHEASTERN REGIONAL MEDICAL CENTER,600 CELEBRATE LIFE PKWY,NEWNAN,GA,30265,GENERAL ACUTE CARE,OPEN,50,COWETA,33.3848346460001,-84.757746692,PROPRIETARY,50,N
RIPON MEDICAL CENTER,845 PARKSIDE ST,RIPON,WI,54971,CRITICAL ACCESS,OPEN,18,FOND DU LAC,43.8343760920001,-88.817751529,NOT AVAILABLE,18,N
SCRIPPS GREEN HOSPITAL,10666 NORTH TORREY PINES ROAD,LA JOLLA,CA,92037,GENERAL ACUTE CARE,OPEN,173,SAN DIEGO,32.896858901,-117.24287107,NON-PROFIT,173,N
SCRIPPS MEMORIAL HOSPITAL - ENCINITAS,354 SANTA FE DRIVE,ENCINITAS,CA,92024,GENERAL ACUTE CARE,OPEN,194,SAN DIEGO,33.0373447760001,-117.284183383,NON-PROFIT,194,Y
WOODLAND MEMORIAL HOSPITAL,1325 COTTONWOOD STREET,WOODLAND,CA,95695,GENERAL ACUTE CARE,OPEN,108,YOLO,38.663925024,-121.792145249,NON-PROFIT,108,N
SAN LEANDRO HOSPITAL,13855 EAST 14TH STREET,SAN LEANDRO,CA,94578,GENERAL ACUTE CARE,OPEN,93,ALAMEDA,37.712288347,-122.143493689,NON-PROFIT,93,N
KAISER FOUNDATION HOSPITAL - LOS ANGELES,4867 SUNSET BOULEVARD,LOS ANGELES,CA,90027,GENERAL ACUTE CARE,OPEN,460,LOS ANGELES,34.0985736490001,-118.294175331,NON-PROFIT,460,N
KAISER FOUNDATION HOSPITAL - PANORAMA CITY,13652 CANTARA STREET,PANORAMA CITY,CA,91402,GENERAL ACUTE CARE,OPEN,218,LOS ANGELES,34.2185641940001,-118.430219294,NON-PROFIT,218,N
GARDENS REGIONAL HOSPITAL AND MEDICAL CENTER,21530 SOUTH PIONEER BOULEVARD,HAWAIIAN GARDENS,CA,90716,GENERAL ACUTE CARE,OPEN,107,LOS ANGELES,33.833640007,-118.079677951,NON-PROFIT,107,N
EISENHOWER MEDICAL CENTER,39000 BOB HOPE DR,RANCHO MIRAGE,CA,92270,GENERAL ACUTE CARE,OPEN,489,RIVERSIDE,33.7633520680001,-116.406241091,NON-PROFIT,489,Y
KAISER FOUNDATION HOSPITAL - REDWOOD CITY,1100 VETERANS BOULEVARD,REDWOOD CITY,CA,94063,GENERAL ACUTE CARE,OPEN,149,SAN MATEO,37.488847836,-122.223390131,NON-PROFIT,149,N
SUTTER DELTA MEDICAL CENTER,3901 LONE TREE WAY,ANTIOCH,CA,94509,GENERAL ACUTE CARE,OPEN,145,CONTRA COSTA,37.9822344500001,-121.802978505,NON-PROFIT,145,Y
KAISER FOUNDATION HOSPITAL - SACRAMENTO,2025 MORSE AVENUE,SACRAMENTO,CA,95825,GENERAL ACUTE CARE,OPEN,287,SACRAMENTO,38.601797751,-121.393144026,NON-PROFIT,287,N
SIERRA NEVADA MEMORIAL HOSPITAL,155 GLASSON WAY,GRASS VALLEY,CA,95945,GENERAL ACUTE CARE,OPEN,104,NEVADA,39.228016294,-121.047499779,NON-PROFIT,104,Y
LA PALMA INTERCOMMUNITY HOSPITAL,7901 WALKER STREET,LA PALMA,CA,90623,GENERAL ACUTE CARE,OPEN,141,ORANGE,33.8475141810001,-118.038302332,NON-PROFIT,141,Y
ST MARY'S HOSPITAL,1230 BAXTER STREET,ATHENS,GA,30606,GENERAL ACUTE CARE,OPEN,196,CLARKE,33.9472213170001,-83.4052524589999,NON-PROFIT,196,Y
WESTERLY HOSPITAL,25 WELLS ST,WESTERLY,RI,2891,GENERAL ACUTE CARE,OPEN,125,WASHINGTON,41.3621890750001,-71.825303241,NON-PROFIT,125,N
MERCY HOSPITAL NORTHWEST ARKANSAS,2710 RIFE MEDICAL LANE,ROGERS,AR,72758,GENERAL ACUTE CARE,OPEN,208,BENTON,36.3089928530001,-94.18297802,NOT AVAILABLE,208,Y
ST CROIX REGIONAL MEDICAL CENTER,235 STATE STREET,SAINT CROIX FALLS,WI,54024,GENERAL ACUTE CARE,OPEN,25,POLK,45.4090324310001,-92.642578117,NON-PROFIT,25,Y
WESTFIELDS HOSPITAL AND CLINIC,535 HOSPITAL RD,NEW RICHMOND,WI,54017,GENERAL ACUTE CARE,OPEN,25,ST. CROIX,45.1177607480001,-92.555500378,NON-PROFIT,25,Y
ST NICHOLAS HOSPITAL,3100 SUPERIOR AVE,SHEBOYGAN,WI,53081,GENERAL ACUTE CARE,OPEN,185,SHEBOYGAN,43.7623479010001,-87.747537955,NON-PROFIT,185,Y
VERNON MEMORIAL HOSPITAL,507 SOUTH MAIN ST,VIROQUA,WI,54665,GENERAL ACUTE CARE,OPEN,25,VERNON,43.5516739730001,-90.888391278,NON-PROFIT,25,N
DELRAY MEDICAL CENTER,5352 LINTON BLVD,DELRAY BEACH,FL,33484,GENERAL ACUTE CARE,OPEN,536,PALM BEACH,26.4371928410001,-80.127787747,PROPRIETARY,536,Y
POINCIANA MEDICAL CENTER,325 CYPRESS PKWY,KISSIMMEE,FL,34758,GENERAL ACUTE CARE,OPEN,76,OSCEOLA,28.144780763,-81.476687855,PROPRIETARY,76,Y
T J HEALTH COLUMBIA,901 WESTLAKE DRIVE,COLUMBIA,KY,42728,GENERAL ACUTE CARE,OPEN,74,ADAIR,37.0966415730001,-85.29454565,NON-PROFIT,74,Y
BETH ISRAEL DEACONESS HOSPITAL - NEEDHAM,148 CHESTNUT STREET,NEEDHAM,MA,2492,GENERAL ACUTE CARE,OPEN,58,NORFOLK,42.2771000000001,-71.2368999999999,NON-PROFIT,58,N
NORWOOD HOSPITAL,800 WASHINGTON ROAD,NORWOOD,MA,2062,GENERAL ACUTE CARE,OPEN,215,NORFOLK,42.1890000000001,-71.2021,PROPRIETARY,215,Y
MERCY HOSPITAL BERRYVILLE,214 CARTER STREET,BERRYVILLE,AR,72616,CRITICAL ACCESS,OPEN,25,CARROLL,36.359062103,-93.551825772,NON-PROFIT,25,Y
BRADLEY COUNTY MEDICAL CENTER,404 SOUTH BRADLEY STREET,WARREN,AR,71671,CRITICAL ACCESS,OPEN,35,BRADLEY,33.6103641340001,-92.059254885,NON-PROFIT,35,Y
OUACHITA COUNTY MEDICAL CENTER,638 CALIFORNIA AVENUE,CAMDEN,AR,71701,GENERAL ACUTE CARE,OPEN,100,OUACHITA,33.5758211300001,-92.8367393299999,NON-PROFIT,100,Y
NORTH ARKANSAS REGIONAL MEDICAL CENTER,620 NORTH MAIN STREET,HARRISON,AR,72601,GENERAL ACUTE CARE,OPEN,174,BOONE,36.2365313550001,-93.1091393739999,NON-PROFIT,174,Y
STONE COUNTY MEDICAL CENTER,"2106 EAST MAIN STREET, HIGHWAY 14 EAST",MOUNTAIN VIEW,AR,72560,CRITICAL ACCESS,OPEN,25,STONE,35.856583126,-92.0828645349999,NON-PROFIT,25,Y
UAMS MEDICAL CENTER,4301 WEST MARKHAM STREET,LITTLE ROCK,AR,72205,GENERAL ACUTE CARE,OPEN,400,PULASKI,34.7490251460001,-92.320137314,GOVERNMENT - STATE,400,Y
JEFFERSON REGIONAL MEDICAL CENTER,1600 WEST 40TH AVENUE,PINE BLUFF,AR,71603,GENERAL ACUTE CARE,OPEN,471,JEFFERSON,34.1877346910001,-92.017680195,NON-PROFIT,471,Y
MENA REGIONAL HEALTH SYSTEM,311 NORTH MORROW STREET,MENA,AR,71953,GENERAL ACUTE CARE,OPEN,65,POLK,34.589053601,-94.221631243,GOVERNMENT - LOCAL,65,Y
CROSSRIDGE COMMUNITY HOSPITAL,310 SOUTH FALLS BOULEVARD,WYNNE,AR,72396,GENERAL ACUTE CARE,OPEN,25,CROSS,35.219557917,-90.7866405359999,NOT AVAILABLE,25,Y
BAPTIST HEALTH MEDICAL CENTER-STUTTGART,1703 NORTH BUERKLE ROAD,STUTTGART,AR,72160,GENERAL ACUTE CARE,OPEN,49,ARKANSAS,34.5175108030001,-91.558299542,NON-PROFIT,49,Y
CASEY COUNTY HOSPITAL,187 WOLFORD AVENUE,LIBERTY,KY,42539,CRITICAL ACCESS,OPEN,24,CASEY,37.3177168120001,-84.933171913,GOVERNMENT - LOCAL,24,Y
MARCUM AND WALLACE MEMORIAL HOSPITAL,60 MERCY COURT,IRVINE,KY,40336,CRITICAL ACCESS,OPEN,25,ESTILL,37.7061970980001,-83.977277144,NON-PROFIT,25,Y
HIGHLANDS REGIONAL MEDICAL CENTER,5000 KENTUCKY ROUTE 321,PRESTONSBURG,KY,41653,GENERAL ACUTE CARE,OPEN,174,FLOYD,37.7290100560001,-82.767320076,NON-PROFIT,174,Y
BAPTIST HEALTH LA GRANGE,1025 NEW MOODY LANE,LAGRANGE,KY,40031,GENERAL ACUTE CARE,OPEN,90,OLDHAM,38.394890194,-85.3760651539999,NON-PROFIT,90,Y
HOULTON REGIONAL HOSPITAL,20 HARTFORD STREET,HOULTON,ME,4730,CRITICAL ACCESS,OPEN,25,AROOSTOOK,46.1338462430001,-67.843623468,NON-PROFIT,25,Y
MAINEGENERAL MEDICAL CENTER,6 EAST CHESTNUT STREET,AUGUSTA,ME,4330,GENERAL ACUTE CARE,OPEN,146,KENNEBEC,44.3131197610001,-69.7684343719999,NON-PROFIT,146,N
MIDMICHIGAN MEDICAL CENTER-GLADWIN,515 QUARTER STREET,GLADWIN,MI,48624,CRITICAL ACCESS,OPEN,25,GLADWIN,43.975943671,-84.493887563,NON-PROFIT,25,Y
HELEN NEWBERRY JOY HOSPITAL,502 W HARRIE ST,NEWBERRY,MI,49868,CRITICAL ACCESS,OPEN,25,LUCE,46.3531800920001,-85.515653738,GOVERNMENT - LOCAL,25,N
SAINT JOSEPH MERCY LIVINGSTON HOSPITAL,620 BYRON RD,HOWELL,MI,48843,GENERAL ACUTE CARE,OPEN,136,LIVINGSTON,42.6155875640001,-83.940990396,NON-PROFIT,136,Y
HILLSDALE HOSPITAL,168 S HOWELL STREET,HILLSDALE,MI,49242,GENERAL ACUTE CARE,OPEN,65,HILLSDALE,41.9117386880001,-84.633003534,NON-PROFIT,65,Y
LAKELAND HOSPITAL WATERVLIET,400 MEDICAL PARK DR,WATERVLIET,MI,49098,GENERAL ACUTE CARE,OPEN,38,BERRIEN,42.1848804640001,-86.249925827,NON-PROFIT,38,Y
MCLAREN CENTRAL MICHIGAN,1221 SOUTH DRIVE,MOUNT PLEASANT,MI,48858,GENERAL ACUTE CARE,OPEN,118,ISABELLA,43.5991224840001,-84.7614128609999,NON-PROFIT,118,Y
SPECTRUM HEALTH LUDINGTON HOSPITAL,ONE N ATKINSON DRIVE,LUDINGTON,MI,49431,GENERAL ACUTE CARE,OPEN,49,MASON,43.9581479410001,-86.430409384,NON-PROFIT,49,Y
BRONSON LAKEVIEW HOSPITAL,408 HAZEN STREET,PAW PAW,MI,49079,GENERAL ACUTE CARE,OPEN,35,VAN BUREN,42.221294361,-85.897070061,NON-PROFIT,35,Y
HENRY FORD HOSPITAL,2799 W GRAND BLVD,DETROIT,MI,48202,GENERAL ACUTE CARE,OPEN,877,WAYNE,42.3676867830001,-83.08472312,NON-PROFIT,877,Y
COMMUNITY HOSPITAL OF ANDERSON AND MADISON COUNTY,1515 N MADISON AVE,ANDERSON,IN,46011,GENERAL ACUTE CARE,OPEN,137,MADISON,40.1306455880001,-85.693209184,NON-PROFIT,137,Y
MEMORIAL HOSPITAL OF SOUTH BEND,615 N MICHIGAN ST,SOUTH BEND,IN,46601,GENERAL ACUTE CARE,OPEN,416,ST. JOSEPH,41.684055286,-86.25157885,NON-PROFIT,416,Y
THOMAS JEFFERSON UNIVERSITY HOSPITAL,111 SOUTH 11TH STREET,PHILADELPHIA,PA,19107,GENERAL ACUTE CARE,OPEN,957,PHILADELPHIA,39.9497083750001,-75.157946045,NON-PROFIT,957,Y
PENN PRESBYTERIAN MEDICAL CENTER,51 NORTH 39TH STREET,PHILADELPHIA,PA,19104,GENERAL ACUTE CARE,OPEN,305,PHILADELPHIA,39.9588724830001,-75.199263683,NON-PROFIT,305,Y
ST JOSEPHS HOSPITAL,16TH STREET & GIRARD AVENUE,PHILADELPHIA,PA,19130,GENERAL ACUTE CARE,CLOSED,227,PHILADELPHIA,39.9714860890001,-75.1631901549999,NON-PROFIT,227,N
GEISINGER MEDICAL CENTER,100 NORTH ACADEMY AVENUE,DANVILLE,PA,17822,GENERAL ACUTE CARE,OPEN,404,MONTOUR,40.968144964,-76.6052561079999,NON-PROFIT,404,N
NORTHERN MONTANA HOSPITAL,30 13TH ST,HAVRE,MT,59501,GENERAL ACUTE CARE,OPEN,49,HILL,48.538077306,-109.685817755,NON-PROFIT,49,N
MUSC MEDICAL CENTER,169 ASHLEY AVE,CHARLESTON,SC,29425,GENERAL ACUTE CARE,OPEN,713,CHARLESTON,32.785882041,-79.947921358,GOVERNMENT - DISTRICT/AUTHORITY,713,N
MIAMI VALLEY HOSPITAL,ONE WYOMING STREET,DAYTON,OH,45409,GENERAL ACUTE CARE,OPEN,883,MONTGOMERY,39.7448932040001,-84.185908608,NON-PROFIT,883,Y
ASPIRUS WAUSAU HOSPITAL,333 PINE RIDGE BLVD,WAUSAU,WI,54401,GENERAL ACUTE CARE,OPEN,325,MARATHON,44.9658418510001,-89.667890213,NON-PROFIT,325,Y
AURORA LAKELAND MEDICAL CENTER,W3985 CTY RD NN,ELKHORN,WI,53121,GENERAL ACUTE CARE,OPEN,109,WALWORTH,42.6618950270001,-88.496191993,NON-PROFIT,109,Y
AURORA MEDICAL CTR WASHINGTON COUNTY,1032 E SUMNER ST,HARTFORD,WI,53027,GENERAL ACUTE CARE,OPEN,71,WASHINGTON,43.3184058430001,-88.362461562,NON-PROFIT,71,Y
AURORA MEDICAL CTR KENOSHA,10400 75TH ST,KENOSHA,WI,53142,GENERAL ACUTE CARE,OPEN,74,KENOSHA,42.5693968150001,-87.9354650229999,NON-PROFIT,74,Y
AURORA MEDICAL CTR MANITOWOC COUNTY,5000 MEMORIAL DR,TWO RIVERS,WI,54241,GENERAL ACUTE CARE,OPEN,69,MANITOWOC,44.125367829,-87.619456133,NON-PROFIT,69,Y
MAJOR HOSPITAL,2451 INTELLIPLEX DRIVE,SHELBYVILLE,IN,46176,GENERAL ACUTE CARE,OPEN,40,SHELBY,39.5603560000001,-85.785817,GOVERNMENT - LOCAL,40,Y
PERRY COUNTY MEMORIAL HOSPITAL,8885 SR 237,TELL CITY,IN,47586,GENERAL ACUTE CARE,OPEN,25,PERRY,37.9679310000001,-86.731667,GOVERNMENT - LOCAL,25,Y
PROVIDENCE HOOD RIVER MEMORIAL HOSPITAL,810 12TH STREET,HOOD RIVER,OR,97031,CRITICAL ACCESS,OPEN,25,HOOD RIVER,45.7048319680001,-121.52390863,NON-PROFIT,25,N
RIVERSIDE MEDICAL CENTER,350 N WALL ST,KANKAKEE,IL,60901,GENERAL ACUTE CARE,OPEN,325,KANKAKEE,41.125086857,-87.8818988909999,NON-PROFIT,325,Y
VASSAR BROTHERS MEDICAL CENTER,45 READE PL,POUGHKEEPSIE,NY,12601,GENERAL ACUTE CARE,OPEN,365,DUTCHESS,41.6938589390001,-73.9357861139999,NON-PROFIT,365,Y
ERIE COUNTY MEDICAL CENTER,462 GRIDER ST,BUFFALO,NY,14215,GENERAL ACUTE CARE,OPEN,550,ERIE,42.9250771000001,-78.8311457679999,GOVERNMENT - DISTRICT/AUTHORITY,550,Y
STRONG MEMORIAL HOSPITAL,601 ELMWOOD AVE,ROCHESTER,NY,14607,GENERAL ACUTE CARE,OPEN,830,MONROE,43.1228088730001,-77.624259428,NON-PROFIT,830,Y
NORTH SHORE UNIVERSITY HOSPITAL,300 COMMUNITY DR,MANHASSET,NY,11030,GENERAL ACUTE CARE,OPEN,764,NASSAU,40.7776359200001,-73.701610944,NON-PROFIT,764,Y
NASSAU UNIVERSITY MEDICAL CENTER,2201 HEMPSTEAD TPKE,EAST MEADOW,NY,11554,GENERAL ACUTE CARE,OPEN,530,NASSAU,40.7262555130001,-73.553738015,GOVERNMENT - DISTRICT/AUTHORITY,530,Y
SOUTH NASSAU COMMUNITIES HOSPITAL,1 HEALTHY WAY,OCEANSIDE,NY,11510,GENERAL ACUTE CARE,OPEN,455,NASSAU,40.6509979950001,-73.630839438,NON-PROFIT,455,N
PARKLAND MEDICAL CENTER,ONE PARKLAND DRIVE,DERRY,NH,3038,GENERAL ACUTE CARE,OPEN,86,ROCKINGHAM,42.8767711740001,-71.3166615379999,PROPRIETARY,86,Y
ORANGE REGIONAL MEDICAL CENTER,707 EAST MAIN STREET,MIDDLETOWN,NY,10924,GENERAL ACUTE CARE,OPEN,353,ORANGE,41.441914083,-74.368312265,NON-PROFIT,353,Y
SAMARITAN HOSPITAL,2215 BURDETT AVE,TROY,NY,12180,GENERAL ACUTE CARE,OPEN,212,RENSSELAER,42.7332924850001,-73.6721639959999,NON-PROFIT,212,N
CANTON-POTSDAM HOSPITAL,50 LEROY ST,POTSDAM,NY,13676,GENERAL ACUTE CARE,OPEN,94,ST. LAWRENCE,44.6765106230001,-74.982116316,NON-PROFIT,94,N
SARATOGA HOSPITAL,211 CHURCH ST,SARATOGA,NY,12866,GENERAL ACUTE CARE,OPEN,171,SARATOGA,43.085880219,-73.796782733,NON-PROFIT,171,Y
ADVOCATE CONDELL MEDICAL CENTER,801 S MILWAUKEE AVE,LIBERTYVILLE,IL,60048,GENERAL ACUTE CARE,OPEN,279,LAKE,42.2742350020001,-87.957699742,NON-PROFIT,279,Y
GALESBURG COTTAGE HOSPITAL,695 N KELLOGG ST,GALESBURG,IL,61401,GENERAL ACUTE CARE,OPEN,119,KNOX,40.95579903,-90.365760264,NON-PROFIT,119,Y
ST MARY MEDICAL CENTER,3333 NORTH SEMINARY,GALESBURG,IL,61401,GENERAL ACUTE CARE,OPEN,90,KNOX,40.986710283,-90.360244917,NON-PROFIT,90,Y
MERCY MEDICAL CENTER,301 ST PAUL PLACE,BALTIMORE,MD,21202,GENERAL ACUTE CARE,OPEN,281,BALTIMORE CITY,39.2929215520001,-76.612884233,NON-PROFIT,281,N
VALLEY REGIONAL HOSPITAL,243 ELM STREET,CLAREMONT,NH,3743,GENERAL ACUTE CARE,OPEN,25,SULLIVAN,43.38458975,-72.340696706,NON-PROFIT,25,Y
FRISBIE MEMORIAL HOSPITAL,11 WHITEHALL ROAD,ROCHESTER,NH,3867,GENERAL ACUTE CARE,OPEN,112,STRAFFORD,43.297556596,-70.96016086,NON-PROFIT,112,N
ST JOSEPH HOSPITAL,172 KINSLEY ST,NASHUA,NH,3061,GENERAL ACUTE CARE,OPEN,208,HILLSBOROUGH,42.749239109,-71.4802120539999,NON-PROFIT,208,N
CONCORD HOSPITAL,250 PLEASANT STREET,CONCORD,NH,3301,GENERAL ACUTE CARE,OPEN,295,MERRIMACK,43.1977441440001,-71.5620204049999,NON-PROFIT,295,Y
FRANKLIN REGIONAL HOSPITAL,15 AIKEN AVE,FRANKLIN,NH,3235,GENERAL ACUTE CARE,OPEN,25,MERRIMACK,43.448404259,-71.644552725,NON-PROFIT,25,Y
EASTERN LONG ISLAND HOSPITAL,201 MANOR PL,GREENPORT,NY,11901,GENERAL ACUTE CARE,OPEN,90,SUFFOLK,41.1103605700001,-72.3611273189999,NON-PROFIT,90,Y
HUNTINGTON HOSPITAL,270 PARK AVE,HUNTINGTON,NY,11743,GENERAL ACUTE CARE,OPEN,408,SUFFOLK,40.8793292410001,-73.416199532,NON-PROFIT,408,N
SOUTHSIDE HOSPITAL,301 E MAIN ST,BAY SHORE,NY,11706,GENERAL ACUTE CARE,OPEN,321,SUFFOLK,40.7259601480001,-73.2411586379999,NON-PROFIT,321,Y
SAINT JOSEPH HOSPITAL,ONE ST JOSEPH DRIVE,LEXINGTON,KY,40504,GENERAL ACUTE CARE,OPEN,433,FAYETTE,38.032339732,-84.52329929,NON-PROFIT,433,Y
ELLENVILLE REGIONAL HOSPITAL,10 HEALTHY WAY,ELLENVILLE,NY,12428,CRITICAL ACCESS,OPEN,25,ULSTER,41.7326297920001,-74.379034975,NON-PROFIT,25,Y
NEWARK-WAYNE COMMUNITY HOSPITAL,1200 DRIVING PARK AVE BOX 111,NEWARK,NY,14513,GENERAL ACUTE CARE,OPEN,120,WAYNE,43.060499378,-77.101669912,NON-PROFIT,120,Y
TWIN LAKES REGIONAL MEDICAL CENTER,910 WALLACE AVENUE,LEITCHFIELD,KY,42754,GENERAL ACUTE CARE,OPEN,75,GRAYSON,37.4725153040001,-86.288593089,NON-PROFIT,75,Y
OUR LADY OF BELLEFONTE HOSPITAL,1000 ST. CHRISTOPHER DRIVE,ASHLAND,KY,41101,GENERAL ACUTE CARE,OPEN,190,GREENUP,38.5084543190001,-82.692616508,NON-PROFIT,190,N
PASSAVANT AREA HOSPITAL,1600 W WALNUT ST,JACKSONVILLE,IL,62650,GENERAL ACUTE CARE,OPEN,108,MORGAN,39.7460849930001,-90.2604866359999,NON-PROFIT,108,Y
WESTCHESTER MEDICAL CENTER,100 WOODS RD,VALHALLA,NY,10532,GENERAL ACUTE CARE,OPEN,652,WESTCHESTER,41.0860907520001,-73.8049547749999,GOVERNMENT - DISTRICT/AUTHORITY,652,Y
FRANKFORT REGIONAL MEDICAL CENTER,299 KINGS DAUGHTERS DRIVE,FRANKFORT,KY,40601,LONG TERM CARE,OPEN,173,FRANKLIN,38.160661745,-84.906893698,PROPRIETARY,173,Y
NORTH CENTRAL BRONX HOSPITAL,3424 KOSSUTH AVE,BRONX,NY,10467,GENERAL ACUTE CARE,OPEN,213,BRONX,40.8803656010001,-73.881057106,GOVERNMENT - LOCAL,213,N
BROOKDALE HOSPITAL MEDICAL CENTER,1 BROOKDALE PLAZA,BROOKLYN,NY,11212,GENERAL ACUTE CARE,OPEN,530,KINGS,40.655269102,-73.9125565319999,NON-PROFIT,530,N
KINGS COUNTY HOSPITAL CENTER,451 CLARKSON AVE,BROOKLYN,NY,11203,GENERAL ACUTE CARE,OPEN,639,KINGS,40.656616381,-73.94469079,GOVERNMENT - LOCAL,639,N
CONEY ISLAND HOSPITAL,2601 OCEAN PARKWAY,BROOKLYN,NY,11235,GENERAL ACUTE CARE,OPEN,371,KINGS,40.5854143810001,-73.9653324339999,GOVERNMENT - LOCAL,371,N
JACOBI MEDICAL CENTER,1400 PELHAM PARKWAY SOUTH,BRONX,NY,10036,GENERAL ACUTE CARE,OPEN,457,BRONX,40.8562983570001,-73.847512147,GOVERNMENT - LOCAL,457,Y
NEW YORK METHODIST HOSPITAL,506 6TH ST,BROOKLYN,NY,11215,GENERAL ACUTE CARE,OPEN,591,KINGS,40.6677617010001,-73.978990521,NON-PROFIT,591,N
ELMHURST HOSPITAL CENTER,79-01 BROADWAY,ELMHURST,NY,11373,GENERAL ACUTE CARE,OPEN,551,QUEENS,40.7448273630001,-73.886079665,GOVERNMENT - LOCAL,551,N
JAMAICA HOSPITAL MEDICAL CENTER,8900 VAN WYCK EXPRESSWAY,JAMAICA,NY,11414,GENERAL ACUTE CARE,OPEN,408,QUEENS,40.700103647,-73.816114892,NON-PROFIT,408,N
THE MEDICAL CENTER AT BOWLING GREEN,250 PARK STREET,BOWLING GREEN,KY,42101,GENERAL ACUTE CARE,OPEN,337,WARREN,36.9959715050001,-86.42975938,NON-PROFIT,337,Y
GLEN COVE HOSPITAL,101 ST ANDREWS LANE,GLEN COVE,NY,11542,GENERAL ACUTE CARE,OPEN,247,NASSAU,40.871001397,-73.622385666,NON-PROFIT,247,N
EPHRAIM MCDOWELL FORT LOGAN HOSPITAL,110 METKER TRAIL,STANFORD,KY,40484,CRITICAL ACCESS,OPEN,25,LINCOLN,37.54279432,-84.653036559,NON-PROFIT,25,Y
MONTEFIORE NEW ROCHELLE HOSPITAL,16 GUION PLACE,NEW ROCHELLE,NY,10802,GENERAL ACUTE CARE,OPEN,23,WESTCHESTER,40.912806059,-73.7877626009999,NON-PROFIT,23,N
HARLEM HOSPITAL CENTER,506 LENOX AVENUE,NEW YORK,NY,10037,GENERAL ACUTE CARE,OPEN,282,NEW YORK,40.81426493,-73.939861261,GOVERNMENT - LOCAL,282,N
MORRIS HOSPITAL & HEALTHCARE CENTERS,150 W HIGH ST,MORRIS,IL,60450,GENERAL ACUTE CARE,OPEN,89,GRUNDY,41.3693259020001,-88.426753306,NON-PROFIT,89,Y
SWEDISH AMERICAN HOSPITAL,1401 EAST STATE STREET,ROCKFORD,IL,61104,GENERAL ACUTE CARE,OPEN,325,WINNEBAGO,42.265674877,-89.0741395379999,NON-PROFIT,325,Y
HOLY CROSS HOSPITAL,1500 FOREST GLEN ROAD,SILVER SPRING,MD,20910,GENERAL ACUTE CARE,OPEN,409,MONTGOMERY,39.0147221440001,-77.035735227,NON-PROFIT,409,N
ADVENTIST BOLINGBROOK HOSPITAL,500 REMINGTON BOULEVARD,BOLINGBROOK,IL,60440,GENERAL ACUTE CARE,OPEN,148,WILL,41.6808649600001,-88.0846514409999,NON-PROFIT,148,Y
METHODIST HOSPITAL,1305 N ELM STREET,HENDERSON,KY,42420,GENERAL ACUTE CARE,OPEN,192,HENDERSON,37.854974612,-87.583199016,NON-PROFIT,192,Y
CROSSROADS COMMUNITY HOSPITAL,8 DOCTORS PARK ROAD,MOUNT VERNON,IL,62864,GENERAL ACUTE CARE,OPEN,41,JEFFERSON,38.3116451610001,-88.93688084,PROPRIETARY,41,Y
DELNOR COMMUNITY HOSPITAL,300 RANDALL RD,GENEVA,IL,60134,GENERAL ACUTE CARE,OPEN,159,KANE,41.886614965,-88.343450363,NON-PROFIT,159,Y
TAYLOR REGIONAL HOSPITAL,1700 OLD LEBANON ROAD,CAMPBELLSVILLE,KY,42718,GENERAL ACUTE CARE,OPEN,90,TAYLOR,37.3663517620001,-85.338106556,GOVERNMENT - DISTRICT/AUTHORITY,90,Y
KIRBY MEDICAL CENTER,1000 MEDICAL CENTER DRIVE,MONTICELLO,IL,61856,CRITICAL ACCESS,OPEN,16,PIATT,40.06044805,-88.558821704,NON-PROFIT,16,Y
SAINT FRANCIS MEDICAL CENTER,530 NE GLEN OAK AVE,PEORIA,IL,61603,GENERAL ACUTE CARE,OPEN,631,PEORIA,40.702746817,-89.591965425,NON-PROFIT,631,Y
BLESSING HOSPITAL,BROADWAY AT 11TH STREET,QUINCY,IL,62301,GENERAL ACUTE CARE,OPEN,335,ADAMS,39.936358882,-91.399457202,NON-PROFIT,335,Y
METHODIST MEDICAL CENTER OF ILLINOIS,221 N E GLEN OAK AVE,PEORIA,IL,61606,GENERAL ACUTE CARE,OPEN,269,PEORIA,40.7003057960001,-89.594916836,NON-PROFIT,269,Y
RUSH OAK PARK HOSPITAL,520 S MAPLE AVE,OAK PARK,IL,60304,GENERAL ACUTE CARE,OPEN,114,COOK,41.878618014,-87.803351533,NON-PROFIT,114,N
YOAKUM COMMUNITY HOSPITAL,1200 CARL RAMERT DRIVE,YOAKUM,TX,77995,CRITICAL ACCESS,OPEN,25,LAVACA,29.30695852,-97.129159089,NON-PROFIT,25,Y
LORETTO HOSPITAL,645 SOUTH CENTRAL AVE,CHICAGO,IL,60644,GENERAL ACUTE CARE,OPEN,176,COOK,41.8721245730001,-87.76408865,NON-PROFIT,176,N
THE UNIVERSITY OF CHICAGO MEDICAL CENTER,5841 SOUTH MARYLAND,CHICAGO,IL,60637,GENERAL ACUTE CARE,OPEN,577,COOK,41.788746851,-87.604337126,NON-PROFIT,577,Y
GOLDEN PLAINS COMMUNITY HOSPITAL,100 MEDICAL DRIVE,BORGER,TX,79007,CRITICAL ACCESS,OPEN,25,HUTCHINSON,35.655138191,-101.409180667,PROPRIETARY,25,Y
THOREK MEMORIAL HOSPITAL,850 W IRVING PARK RD,CHICAGO,IL,60613,GENERAL ACUTE CARE,OPEN,134,COOK,41.9551890160001,-87.6516212399999,NON-PROFIT,134,N
MERCY HOSPITAL AND MEDICAL CENTER,2525 S MICHIGAN AVE,CHICAGO,IL,60616,GENERAL ACUTE CARE,OPEN,421,COOK,41.8468895830001,-87.621491598,NON-PROFIT,421,N
ADVOCATE CHRIST HOSPITAL & MEDICAL CENTER,4440 W 95TH STREET,OAK LAWN,IL,60453,GENERAL ACUTE CARE,OPEN,684,COOK,41.7216945170001,-87.732442245,NON-PROFIT,684,Y
NORTHWESTERN MEMORIAL HOSPITAL,251 E HURON ST,CHICAGO,IL,60611,GENERAL ACUTE CARE,OPEN,885,COOK,41.894607713,-87.621024366,NON-PROFIT,885,N
ST ALEXIUS MEDICAL CENTER,1555 N BARRINGTON RD,HOFFMAN ESTATES,IL,60169,GENERAL ACUTE CARE,OPEN,305,COOK,42.052928459,-88.1410342249999,NON-PROFIT,305,Y
RUSSELL COUNTY HOSPITAL,"153 DOWELL RD., PO BOX 1610",RUSSELL SPRINGS,KY,42642,GENERAL ACUTE CARE,OPEN,25,RUSSELL,37.05758045,-85.067352806,GOVERNMENT - LOCAL,25,Y
RALEIGH GENERAL HOSPITAL,1710 HARPER ROAD,BECKLEY,WV,25801,GENERAL ACUTE CARE,OPEN,300,RALEIGH,37.787554395,-81.201931585,PROPRIETARY,300,Y
BAPTIST HEALTH LOUISVILLE,4000 KRESGE WAY,LOUISVILLE,KY,40207,GENERAL ACUTE CARE,OPEN,519,JEFFERSON,38.238118248,-85.637144295,NON-PROFIT,519,Y
UNIVERSITY OF LOUISVILLE HOSPITAL,530 S JACKSON ST,LOUISVILLE,KY,40202,GENERAL ACUTE CARE,OPEN,404,JEFFERSON,38.248322961,-85.7443359649999,NON-PROFIT,404,Y
PAUL B HALL REGIONAL MEDICAL CENTER,625 JAMES S TRIMBLE BLVD,PAINTSVILLE,KY,41240,GENERAL ACUTE CARE,OPEN,72,JOHNSON,37.8155109360001,-82.813051295,PROPRIETARY,72,N
JEFFERSON MEDICAL CENTER,300 SOUTH PRESTON STREET,RANSON,WV,25438,CRITICAL ACCESS,OPEN,25,JEFFERSON,39.2959891360001,-77.858759055,NON-PROFIT,25,Y
PLATEAU MEDICAL CENTER,430 MAIN STREET,OAK HILL,WV,25901,CRITICAL ACCESS,OPEN,25,FAYETTE,37.971276577,-81.149780587,PROPRIETARY,25,N
MINNIE HAMILTON HEALTH CARE CENTER,186 HOSPITAL DRIVE,GRANTSVILLE,WV,26147,CRITICAL ACCESS,OPEN,42,CALHOUN,38.9227600680001,-81.0924929559999,NON-PROFIT,42,Y
ST MARY'S MEDICAL CENTER,2900 1ST AVENUE,HUNTINGTON,WV,25702,GENERAL ACUTE CARE,OPEN,393,CABELL,38.430550451,-82.4004127269999,NON-PROFIT,393,Y
PRINCETON COMMUNITY HOSPITAL,"122 12TH STREET, PO BOX 1369",PRINCETON,WV,24740,GENERAL ACUTE CARE,OPEN,267,MERCER,37.3627189270001,-81.113010848,GOVERNMENT - LOCAL,267,Y
PLEASANT VALLEY HOSPITAL,2520 VALLEY DRIVE,POINT PLEASANT,WV,25550,GENERAL ACUTE CARE,OPEN,201,MASON,38.8690654100001,-82.123223867,NON-PROFIT,201,Y
BOONE MEMORIAL HOSPITAL,701 MADISON AVENUE,MADISON,WV,25130,CRITICAL ACCESS,OPEN,25,BOONE,38.0482000000001,-81.80619,GOVERNMENT - LOCAL,25,N
PRESTON MEMORIAL HOSPITAL,300 S PRICE STREET,KINGWOOD,WV,26537,CRITICAL ACCESS,CLOSED,25,PRESTON,39.46507784,-79.687857503,NON-PROFIT,25,Y
BERKELEY MEDICAL CENTER,2500 HOSPITAL DRIVE,MARTINSBURG,WV,25401,GENERAL ACUTE CARE,OPEN,195,BERKELEY,39.476243465,-77.9802371769999,NON-PROFIT,195,Y
WEST VIRGINIA UNIVERSITY HOSPITALS,1 MEDICAL CENTER DRIVE,MORGANTOWN,WV,26506,GENERAL ACUTE CARE,OPEN,677,MONONGALIA,39.6544225740001,-79.958022141,NON-PROFIT,677,Y
REYNOLDS MEMORIAL HOSPITAL,800 WHEELING AVE,GLEN DALE,WV,26038,GENERAL ACUTE CARE,OPEN,90,MARSHALL,39.946141927,-80.752437545,NON-PROFIT,90,N
ST ANTHONYS MEMORIAL HOSPITAL,503 N MAPLE STREET,EFFINGHAM,IL,62401,GENERAL ACUTE CARE,OPEN,146,EFFINGHAM,39.1257760170001,-88.5501252189999,NON-PROFIT,146,Y
MEADOWVIEW REGIONAL MEDICAL CENTER,989 MEDICAL PARK DRIVE,MAYSVILLE,KY,41056,GENERAL ACUTE CARE,OPEN,100,MASON,38.6399743760001,-83.808105166,PROPRIETARY,100,Y
MEMORIAL MEDICAL CENTER,701 N FIRST ST,SPRINGFIELD,IL,62702,GENERAL ACUTE CARE,OPEN,473,SANGAMON,39.80936884,-89.6557791019999,NON-PROFIT,473,Y
EPHRAIM MCDOWELL REGIONAL MEDICAL CENTER,217 SOUTH THIRD STREET,DANVILLE,KY,40422,GENERAL ACUTE CARE,OPEN,197,BOYLE,37.6438733050001,-84.773001139,NON-PROFIT,197,N
THE CARLE FOUNDATION HOSPITAL,611 WEST PARK STREET,URBANA,IL,61801,GENERAL ACUTE CARE,OPEN,322,CHAMPAIGN,40.117041763,-88.2149486599999,NON-PROFIT,322,Y
SPRING VIEW HOSPITAL,320 LORETTO ROAD,LEBANON,KY,40033,GENERAL ACUTE CARE,OPEN,75,MARION,37.5698288780001,-85.2614564089999,PROPRIETARY,75,Y
OWENSBORO HEALTH MUHLENBERG COMMUNITY HOSPITAL,440 HOPKINSVILLE STREET,GREENVILLE,KY,42345,GENERAL ACUTE CARE,OPEN,90,MUHLENBERG,37.1965353910001,-87.189294499,NON-PROFIT,90,N
CALDWELL MEDICAL CENTER,100 MEDICAL CENTER DRIVE,PRINCETON,KY,42445,CRITICAL ACCESS,OPEN,25,CALDWELL,37.113674313,-87.909600476,NON-PROFIT,25,Y
T J SAMSON COMMUNITY HOSPITAL,1301 NORTH RACE STREET,GLASGOW,KY,42141,GENERAL ACUTE CARE,OPEN,180,BARREN,37.011392389,-85.9045139739999,NON-PROFIT,180,Y
LATIMER COUNTY GENERAL HOSPITAL,806 HIGHWAY 2 NORTH,WILBURTON,OK,74578,GENERAL ACUTE CARE,OPEN,33,LATIMER,34.91947628,-95.3208557309999,GOVERNMENT - LOCAL,33,Y
MASON DISTRICT HOSPITAL,"615 NORTH PROMENADE STREET, P O BOX 530",HAVANA,IL,62644,CRITICAL ACCESS,OPEN,20,MASON,40.305423138,-90.0540906959999,GOVERNMENT - DISTRICT/AUTHORITY,20,Y
PIKEVILLE MEDICAL CENTER,911 BYPASS RD,PIKEVILLE,KY,41501,GENERAL ACUTE CARE,OPEN,340,PIKE,37.471241666,-82.522247497,NON-PROFIT,340,Y
ST JOSEPH MEDICAL CENTER,2200 E WASHINGTON,BLOOMINGTON,IL,61701,GENERAL ACUTE CARE,OPEN,149,MCLEAN,40.4826765880001,-88.955562196,NON-PROFIT,149,Y
HAZARD ARH REGIONAL MEDICAL CENTER,100 MEDICAL CENTER DRIVE,HAZARD,KY,41701,GENERAL ACUTE CARE,OPEN,358,PERRY,37.2782979460001,-83.227882237,NON-PROFIT,358,Y
TUG VALLEY ARH REGIONAL MEDICAL CENTER,260 HOSPITAL DRIVE,SOUTH WILLIAMSON,KY,41503,GENERAL ACUTE CARE,OPEN,113,PIKE,37.6765106440001,-82.297022722,NON-PROFIT,113,Y
DECATUR MEMORIAL HOSPITAL,2300 NORTH EDWARD STREET,DECATUR,IL,62526,GENERAL ACUTE CARE,OPEN,188,MACON,39.8672533980001,-88.960982947,NON-PROFIT,188,Y
MEMORIAL HOSPITAL,3073 WHITE MOUNTAIN HIGHWAY,NORTH CONWAY,NH,3860,GENERAL ACUTE CARE,OPEN,25,CARROLL,44.061812687,-71.136853803,GOVERNMENT - LOCAL,25,Y
CHESHIRE MEDICAL CENTER,580 COURT STREET,KEENE,NH,3431,GENERAL ACUTE CARE,OPEN,169,CHESHIRE,42.9488432030001,-72.2919009,NON-PROFIT,169,Y
LITTLETON REGIONAL HEALTHCARE,600 ST. JOHNSBURY ROAD,LITTLETON,NH,3561,GENERAL ACUTE CARE,OPEN,25,GRAFTON,44.317933877,-71.825559036,NON-PROFIT,25,Y
ALICE PECK DAY MEMORIAL HOSPITAL,10 ALICE PECK DAY DRIVE,LEBANON,NH,3766,GENERAL ACUTE CARE,OPEN,25,GRAFTON,43.638447731,-72.286002567,NON-PROFIT,25,N
INTEGRIS GROVE HOSPITAL,1001 EAST 18TH STREET,GROVE,OK,74344,GENERAL ACUTE CARE,OPEN,58,DELAWARE,36.581287354,-94.758576687,NON-PROFIT,58,Y
LAKES REGION GENERAL HOSPITAL,80 HIGHLAND STREET,LACONIA,NH,3246,GENERAL ACUTE CARE,OPEN,137,BELKNAP,43.5285555460001,-71.4631810129999,NON-PROFIT,137,N
INTEGRIS BASS BAPTIST HEALTH CENTER,600 SOUTH MONROE STREET,ENID,OK,73702,GENERAL ACUTE CARE,OPEN,183,GARFIELD,36.3901652910001,-97.887425579,NON-PROFIT,183,Y
HASKELL COUNTY COMMUNITY HOSPITAL,401 NORTHWEST 'H' STREET,STIGLER,OK,74462,CRITICAL ACCESS,OPEN,25,HASKELL,35.2611650690001,-95.128751584,PROPRIETARY,25,N
ELMHURST MEMORIAL HOSPITAL,155 EAST BRUSH HILL ROAD,ELMHURST,IL,60126,GENERAL ACUTE CARE,OPEN,315,DUPAGE,41.863761991,-87.935579144,NON-PROFIT,315,Y
CENTRAL DUPAGE HOSPITAL,25 NORTH WINFIELD ROAD,WINFIELD,IL,60190,GENERAL ACUTE CARE,OPEN,344,DUPAGE,41.8735205630001,-88.155758695,NON-PROFIT,344,Y
ALLIANCEHEALTH WOODWARD,900 17TH STREET,WOODWARD,OK,73801,GENERAL ACUTE CARE,OPEN,87,WOODWARD,36.4373979120001,-99.400337222,PROPRIETARY,87,Y
SOUTHWESTERN MEDICAL CENTER,5602 SW LEE BOULEVARD,LAWTON,OK,73505,GENERAL ACUTE CARE,OPEN,199,COMANCHE,34.592635247,-98.4627401929999,PROPRIETARY,199,Y
STILLWATER MEDICAL CENTER,1323 WEST SIXTH AVENUE,STILLWATER,OK,74074,GENERAL ACUTE CARE,OPEN,117,PAYNE,36.115011098,-97.0751020659999,GOVERNMENT - DISTRICT/AUTHORITY,117,Y
CHOCTAW MEMORIAL HOSPITAL,1405 EAST KIRK STREET,HUGO,OK,74743,GENERAL ACUTE CARE,OPEN,34,CHOCTAW,34.0123720990001,-95.496650093,GOVERNMENT - DISTRICT/AUTHORITY,34,Y
ALLIANCEHEALTH SEMINOLE,2401 WRANGLER BOULEVARD,SEMINOLE,OK,74868,GENERAL ACUTE CARE,OPEN,32,SEMINOLE,35.244974991,-96.698409235,PROPRIETARY,32,Y
HILLCREST HOSPITAL SOUTH,8801 SOUTH 101ST EAST AVENUE,TULSA,OK,74133,GENERAL ACUTE CARE,OPEN,180,TULSA,36.035315504,-95.863559858,PROPRIETARY,180,Y
HILLCREST MEDICAL CENTER,1120 SOUTH UTICA,TULSA,OK,74104,GENERAL ACUTE CARE,OPEN,620,TULSA,36.147161182,-95.968510827,PROPRIETARY,620,Y
AURORA MEDICAL CTR OSHKOSH,855 N WESTHAVEN DRIVE,OSHKOSH,WI,54904,GENERAL ACUTE CARE,OPEN,84,WINNEBAGO,44.0277467770001,-88.595218368,NON-PROFIT,84,Y
AURORA MEDICAL CENTER,975 PORT WASHINGTON ROAD,GRAFTON,WI,53024,GENERAL ACUTE CARE,OPEN,127,OZAUKEE,43.3236520900001,-87.928171536,NON-PROFIT,127,Y
HILLCREST HOSPITAL CLAREMORE,1202 NORTH MUSKOGEE PLACE,CLAREMORE,OK,74017,GENERAL ACUTE CARE,OPEN,81,ROGERS,36.3226445400001,-95.60467518,PROPRIETARY,81,Y
GREAT PLAINS REGIONAL MEDICAL CENTER,1801 WEST THIRD STREET,ELK CITY,OK,73644,GENERAL ACUTE CARE,OPEN,62,BECKHAM,35.413983063,-99.426251023,NON-PROFIT,62,Y
WAGONER COMMUNITY HOSPITAL,1200 WEST CHEROKEE STREET,WAGONER,OK,74467,GENERAL ACUTE CARE,OPEN,100,WAGONER,35.9615239550001,-95.392430503,GOVERNMENT - DISTRICT/AUTHORITY,100,Y
MUSCOGEE (CREEK) NATION MEDICAL CENTER,1401 MORRIS DRIVE,OKMULGEE,OK,74447,GENERAL ACUTE CARE,OPEN,66,OKMULGEE,35.6111880240001,-95.952484996,NOT AVAILABLE,66,Y
AURORA SHEBOYGAN MEMORIAL MEDICAL CTR,2629 N 7TH ST,SHEBOYGAN,WI,53083,GENERAL ACUTE CARE,OPEN,185,SHEBOYGAN,43.7733868460001,-87.709995072,NON-PROFIT,185,Y
MERCY HOSPITAL ADA,430 NORTH MONTA VISTA,ADA,OK,74820,GENERAL ACUTE CARE,OPEN,144,PONTOTOC,34.7782702540001,-96.6333675769999,NON-PROFIT,144,Y
ANDROSCOGGIN VALLEY HOSPITAL,59 PAGE HILL RD,BERLIN,NH,3570,GENERAL ACUTE CARE,OPEN,25,COOS,44.486950902,-71.155253902,NON-PROFIT,25,Y
WEEKS MEDICAL CENTER,173 MIDDLE STREET,LANCASTER,NH,3584,GENERAL ACUTE CARE,OPEN,25,COOS,44.486230365,-71.554339929,NON-PROFIT,25,N
ST FRANCIS HOSPITAL,1215 FRANCISCAN DR,LITCHFIELD,IL,62056,CRITICAL ACCESS,OPEN,25,MONTGOMERY,39.1812135550001,-89.639055748,NON-PROFIT,25,Y
OSF HOLY FAMILY MEDICAL CENTER,1000 W HARLEM AVENUE,MONMOUTH,IL,61462,CRITICAL ACCESS,OPEN,23,WARREN,40.922252932,-90.658301335,NON-PROFIT,23,Y
SARAH D CULBERTSON MEMORIAL HOSPITAL,238 SOUTH CONGRESS STREET,RUSHVILLE,IL,62681,CRITICAL ACCESS,OPEN,46,SCHUYLER,40.118162797,-90.5643155,GOVERNMENT - DISTRICT/AUTHORITY,46,N
MASSAC MEMORIAL HOSPITAL,"28 CHICK STREET, PO BOX 850",METROPOLIS,IL,62960,CRITICAL ACCESS,OPEN,25,MASSAC,37.166374757,-88.740048665,GOVERNMENT - DISTRICT/AUTHORITY,25,N
PARIS COMMUNITY HOSPITAL,721 E COURT STREET,PARIS,IL,61944,CRITICAL ACCESS,OPEN,25,EDGAR,39.606840038,-87.677654702,NON-PROFIT,25,Y
BECKLEY ARH HOSPITAL,306 STANAFORD ROAD,BECKLEY,WV,25801,GENERAL ACUTE CARE,OPEN,173,RALEIGH,37.798832695,-81.168183745,NON-PROFIT,173,Y
FAIRBANKS MEMORIAL HOSPITAL,1650 COWLES STREET,FAIRBANKS,AK,99701,GENERAL ACUTE CARE,OPEN,217,FAIRBANKS NORTH STAR,64.831744708,-147.739392817,NON-PROFIT,217,Y
MAT-SU REGIONAL MEDICAL CENTER,2500 S. WOODWORTH LOOP,PALMER,AK,99645,GENERAL ACUTE CARE,OPEN,74,MATANUSKA-SUSITNA,61.5628935770001,-149.258311157,PROPRIETARY,74,Y
MAURY REGIONAL HOSPITAL,1224 TROTWOOD AVENUE,COLUMBIA,TN,38401,GENERAL ACUTE CARE,OPEN,255,MAURY,35.6071638650001,-87.0668911079999,GOVERNMENT - LOCAL,255,N
HENRY COUNTY MEDICAL CENTER,301 TYSON AVENUE,PARIS,TN,38242,GENERAL ACUTE CARE,OPEN,142,HENRY,36.2965426920001,-88.310304585,GOVERNMENT - DISTRICT/AUTHORITY,142,Y
METHODIST MEDICAL CENTER OF OAK RIDGE,990 OAK RIDGE TURNPIKE,OAK RIDGE,TN,37830,GENERAL ACUTE CARE,OPEN,301,ANDERSON,36.024545109,-84.245085527,NON-PROFIT,301,Y
TRISTAR SKYLINE MEDICAL CENTER,3441 DICKERSON PIKE,NASHVILLE,TN,37207,GENERAL ACUTE CARE,OPEN,213,DAVIDSON,36.2453409300001,-86.7496189839999,PROPRIETARY,213,Y
ERLANGER MEDICAL CENTER,975 EAST THIRD STREET,CHATTANOOGA,TN,37403,GENERAL ACUTE CARE,OPEN,560,HAMILTON,35.0488941250001,-85.2900474479999,GOVERNMENT - DISTRICT/AUTHORITY,560,Y
NORTHCREST MEDICAL CENTER,100 NORTHCREST DRIVE,SPRINGFIELD,TN,37172,GENERAL ACUTE CARE,OPEN,109,ROBERTSON,36.478480081,-86.886901925,NON-PROFIT,109,Y
JOHNSON CITY MEDICAL CENTER,400 NORTH STATE OF FRANKLIN ROAD,JOHNSON CITY,TN,37604,GENERAL ACUTE CARE,OPEN,585,WASHINGTON,36.307843099,-82.384562638,NON-PROFIT,585,Y
WILLIAMSON MEDICAL CENTER,4321 CAROTHERS PARKWAY,FRANKLIN,TN,37067,GENERAL ACUTE CARE,OPEN,185,WILLIAMSON,35.9161622550001,-86.819250043,GOVERNMENT - LOCAL,185,Y
RHEA MEDICAL CENTER,9400 RHEA COUNTY HIGHWAY,DAYTON,TN,37321,GENERAL ACUTE CARE,OPEN,25,RHEA,35.529101344,-84.981779456,GOVERNMENT - LOCAL,25,Y
SAINT THOMAS RUTHERFORD HOSPITAL,1700 MEDICAL CENTER PARKWAY,MURFREESBORO,TN,37129,GENERAL ACUTE CARE,OPEN,286,RUTHERFORD,35.860579123,-86.4250313759999,NON-PROFIT,286,Y
COFFEY COUNTY HOSPITAL,801 NORTH 4TH STREET,BURLINGTON,KS,66839,GENERAL ACUTE CARE,OPEN,78,COFFEY,38.202271765,-95.7376996419999,GOVERNMENT - LOCAL,78,Y
WILSON MEDICAL CENTER,REECE CAMPUS 2600 OTTAWA ROAD,NEODESHA,KS,66757,GENERAL ACUTE CARE,OPEN,15,WILSON,37.409570585,-95.708332152,GOVERNMENT - LOCAL,15,Y
TEXAS HEALTH HARRIS METHODIST HOSPITAL AZLE,108 DENVER TRAIL,AZLE,TX,76020,GENERAL ACUTE CARE,OPEN,36,TARRANT,32.8809664820001,-97.533098647,NON-PROFIT,36,Y
NORTH AUSTIN MEDICAL CENTER,12221 MOPAC SERVICE ROAD,AUSTIN,TX,78758,GENERAL ACUTE CARE,OPEN,378,TRAVIS,30.4114880280001,-97.7062274049999,NON-PROFIT,378,Y
EASTLAND MEMORIAL HOSPITAL,304 SOUTH DAUGHERTY AVENUE,EASTLAND,TX,76448,GENERAL ACUTE CARE,OPEN,52,EASTLAND,32.3998206380001,-98.8211424789999,GOVERNMENT - DISTRICT/AUTHORITY,52,Y
CONNALLY MEMORIAL MEDICAL CENTER,499 10TH STREET,FLORESVILLE,TX,78114,GENERAL ACUTE CARE,OPEN,44,WILSON,29.158500631,-98.174972586,GOVERNMENT - DISTRICT/AUTHORITY,44,Y
NORTH TEXAS MEDICAL CENTER,1900 HOSPITAL BOULEVARD,GAINESVILLE,TX,76240,GENERAL ACUTE CARE,OPEN,60,COOKE,33.6463626400001,-97.1627319,GOVERNMENT - DISTRICT/AUTHORITY,60,Y
MEDINA REGIONAL HOSPITAL,3100 AVENUE E,HONDO,TX,78861,GENERAL ACUTE CARE,OPEN,25,MEDINA,29.3346229570001,-99.134482544,GOVERNMENT - DISTRICT/AUTHORITY,25,N
CHRISTUS JASPER MEMORIAL HOSPITAL,1275 MARVIN HANCOCK DRIVE,JASPER,TX,75951,GENERAL ACUTE CARE,OPEN,59,JASPER,30.9078945300001,-94.009553306,NON-PROFIT,59,Y
MEMORIAL HERMANN KATY HOSPITAL,23900 KATY FREEWAY,KATY,TX,77494,GENERAL ACUTE CARE,OPEN,208,HARRIS,29.787310995,-95.786254532,NON-PROFIT,208,Y
PETERSON REGIONAL MEDICAL CENTER,551 HILL COUNTRY DIRVE,KERRVILLE,TX,78028,GENERAL ACUTE CARE,OPEN,124,KERR,30.043465994,-99.152868896,NON-PROFIT,124,Y
COVENANT HOSPITAL LEVELLAND,1900 COLLEGE AVENUE,LEVELLAND,TX,79336,GENERAL ACUTE CARE,OPEN,48,HOCKLEY,33.572686515,-102.368897211,NON-PROFIT,48,Y
BAYLOR SCOTT & WHITE MEDICAL CENTER - LLANO,200 W OLLIE ST,LLANO,TX,78643,GENERAL ACUTE CARE,OPEN,30,LLANO,30.742649623,-98.677655751,NON-PROFIT,30,Y
METHODIST MCKINNEY HOSPITAL,8000 WEST ELDORADO PARKWAY,MCKINNEY,TX,75070,GENERAL ACUTE CARE,OPEN,23,COLLIN,33.176525285,-96.722295801,PROPRIETARY,23,N
MISSION REGIONAL MEDICAL CENTER,900 SOUTH BRYAN ROAD,MISSION,TX,78572,GENERAL ACUTE CARE,OPEN,297,HIDALGO,26.1963482040001,-98.314317224,NON-PROFIT,297,Y
TITUS REGIONAL MEDICAL CENTER,2001 NORTH JEFFERSON AVENUE,MOUNT PLEASANT,TX,75455,GENERAL ACUTE CARE,OPEN,164,TITUS,33.175599387,-94.971174939,GOVERNMENT - DISTRICT/AUTHORITY,164,Y
NACOGDOCHES MEDICAL CENTER,4920 N. E. STALLINGS DRIVE,NACOGDOCHES,TX,75965,GENERAL ACUTE CARE,OPEN,153,NACOGDOCHES,31.653144314,-94.653873115,PROPRIETARY,153,Y
SAINT CLARE'S HOSPITAL,915 EAST 5TH STREET,ALTON,IL,62002,GENERAL ACUTE CARE,CLOSED,-999,MADISON,38.8908049620001,-90.170929284,NOT AVAILABLE,-999,N
PALESTINE REGIONAL MEDICAL CENTER,2900 SOUTH LOOP 256,PALESTINE,TX,75801,GENERAL ACUTE CARE,OPEN,86,ANDERSON,31.7325966830001,-95.627227561,PROPRIETARY,86,Y
PAMPA REGIONAL MEDICAL CENTER,ONE MEDICAL PLAZA,PAMPA,TX,79065,GENERAL ACUTE CARE,OPEN,115,GRAY,35.5724721620001,-100.964796468,PROPRIETARY,115,Y
COVENANT HOSPITAL PLAINVIEW,2601 DIMMITT ROAD,PLAINVIEW,TX,79072,GENERAL ACUTE CARE,OPEN,68,HALE,34.206756715,-101.73294565,NON-PROFIT,68,Y
TEXAS HEALTH PRESBYTERIAN HOSPITAL PLANO,6200 WEST PARKER ROAD,PLANO,TX,75093,GENERAL ACUTE CARE,OPEN,366,COLLIN,33.0436635520001,-96.836470947,NON-PROFIT,366,Y
METHODIST RICHARDSON MEDICAL CENTER,401 WEST CAMPBELL ROAD,RICHARDSON,TX,75080,GENERAL ACUTE CARE,OPEN,209,DALLAS,32.974316527,-96.7266011149999,GOVERNMENT - DISTRICT/AUTHORITY,209,Y
OAKBEND MEDICAL CENTER,1705 JACKSON STREET,RICHMOND,TX,77469,GENERAL ACUTE CARE,OPEN,168,FORT BEND,29.5763288420001,-95.7709370219999,GOVERNMENT - DISTRICT/AUTHORITY,168,Y
VALLEY WEST COMMUNITY HOSPITAL,1302 NORTH MAIN STREET,SANDWICH,IL,60548,CRITICAL ACCESS,OPEN,24,DEKALB,41.657190128,-88.6207348189999,NON-PROFIT,24,Y
SOUTHWEST GENERAL HOSPITAL,7400 BARLITE BOULEVARD,SAN ANTONIO,TX,78224,GENERAL ACUTE CARE,OPEN,327,BEXAR,29.3535371450001,-98.5447077169999,PROPRIETARY,327,Y
FOUNDATION SURGICAL HOSPITAL OF SAN ANTONIO,9522 HUEBNER ROAD,SAN ANTONIO,TX,78240,GENERAL ACUTE CARE,OPEN,20,BEXAR,29.5302401050001,-98.589751317,PROPRIETARY,20,N
METHODIST STONE OAK HOSPITAL,1139 EAST SONTERRA BOULEVARD,SAN ANTONIO,TX,78258,GENERAL ACUTE CARE,OPEN,140,BEXAR,29.6158622130001,-98.474434773,PROPRIETARY,140,Y
BAPTIST HEALTH MADISONVILLE,900 HOSPITAL DRIVE,MADISONVILLE,KY,42431,GENERAL ACUTE CARE,OPEN,390,HOPKINS,37.340597841,-87.493349446,PROPRIETARY,390,Y
WILSON N JONES REGIONAL MEDICAL CENTER,500 NORTH HIGHLAND AVENUE,SHERMAN,TX,75092,GENERAL ACUTE CARE,OPEN,202,GRAYSON,33.6370973860001,-96.623821654,NON-PROFIT,202,Y
EAST TEXAS MEDICAL CENTER TRINITY,317 PROSPECT DRIVE,TRINITY,TX,75862,GENERAL ACUTE CARE,CLOSED,45,TRINITY,30.9568636700001,-95.381049229,NON-PROFIT,45,Y
UVALDE MEMORIAL HOSPITAL,1025 GARNER FIELD ROAD,UVALDE,TX,78801,GENERAL ACUTE CARE,OPEN,25,UVALDE,29.2141196690001,-99.767837207,GOVERNMENT - DISTRICT/AUTHORITY,25,Y
BAYLOR MEDICAL CENTER AT UPTOWN,2727 EAST LEMMON AVENUE,DALLAS,TX,75204,GENERAL ACUTE CARE,OPEN,24,DALLAS,32.8042463780001,-96.7949549529999,PROPRIETARY,24,N
CHRISTUS ST VINCENT REGIONAL MEDICAL CENTER,455 ST MICHAELS DRIVE,SANTA FE,NM,87505,GENERAL ACUTE CARE,OPEN,200,SANTA FE,35.6594409860001,-105.945780485,NON-PROFIT,200,Y
DALLAS MEDICAL CENTER,7 MEDICAL PARKWAY,DALLAS,TX,75234,GENERAL ACUTE CARE,OPEN,155,DALLAS,32.915260532,-96.8697958659999,PROPRIETARY,155,N
TEXAS HEALTH HARRIS METHODIST HOSPITAL ALLIANCE,10864 TEXAS HEALTH TRAIL,FORT WORTH,TX,76244,GENERAL ACUTE CARE,OPEN,74,TARRANT,32.9306806070001,-97.309912276,NON-PROFIT,74,Y
SCENIC MOUNTAIN MEDICAL CENTER,1601 WEST 11TH PLACE,BIG SPRING,TX,79720,GENERAL ACUTE CARE,OPEN,150,HOWARD,32.2363778450001,-101.49167553,PROPRIETARY,150,Y
BAPTIST EMERGENCY HOSPITAL,16977 I-35 NORTH,SCHERTZ,TX,78154,GENERAL ACUTE CARE,OPEN,8,COMAL,29.5942753090001,-98.290084819,PROPRIETARY,8,N
SOUTH TEXAS SURGICAL HOSPITAL,6130 PARKWAY DRIVE,CORPUS CHRISTI,TX,78413,GENERAL ACUTE CARE,OPEN,33,NUECES,27.6860413630001,-97.375547123,PROPRIETARY,33,Y
ST CHARLES - MADRAS,470 NE A STREET,MADRAS,OR,97741,GENERAL ACUTE CARE,OPEN,-999,JEFFERSON,44.637873733,-121.120725417,NON-PROFIT,-999,Y
JOHNSTON MEMORIAL HOSPITAL,16000 JOHNSTON MEMORIAL DRIVE,ABINGDON,VA,24211,GENERAL ACUTE CARE,OPEN,116,WASHINGTON,36.722913394,-81.912121461,NON-PROFIT,116,Y
ESKENAZI HEALTH,720 ESKENAZI AVENUE,INDIANAPOLIS,IN,46202,GENERAL ACUTE CARE,OPEN,337,MARION,39.777882758,-86.183985886,GOVERNMENT - LOCAL,337,Y
LAKE GRANBURY MEDICAL CENTER,1310 PALUXY ROAD,GREENVILLE,TX,76048,GENERAL ACUTE CARE,OPEN,83,HOOD,32.4324893140001,-97.803848504,PROPRIETARY,83,Y
TEXAS HEALTH PRESBYTERIAN HOSPITAL ROCKWALL,3150 HORIZON ROAD,ROCKWALL,TX,75032,GENERAL ACUTE CARE,OPEN,50,ROCKWALL,32.8842894950001,-96.466225505,PROPRIETARY,50,Y
ATRIUM MEDICAL CENTER,11929 WEST AIRPORT BOULEVARD,STAFFORD,TX,77477,LONG TERM CARE,OPEN,68,FORT BEND,29.6468475090001,-95.588277013,PROPRIETARY,68,N
NIX HEALTH CARE SYSTEM,414 NAVARRO STREET,SAN ANTONIO,TX,78205,GENERAL ACUTE CARE,CLOSED,208,BEXAR,29.4256719860001,-98.4894159999999,PROPRIETARY,208,N
NORTH HAWAII COMMUNITY HOSPITAL,67-1125 MAMALAHOA HWY,KAMUELA,HI,96743,GENERAL ACUTE CARE,OPEN,33,HAWAII,20.0223088970001,-155.664420885,NON-PROFIT,33,Y
PROVIDENCE HOSPITAL,230 CALLE DEL NORTE,LAREDO,TX,78041,REHABILITATION,OPEN,12,WEBB,27.5563704190001,-99.491959317,PROPRIETARY,12,N
BAYLOR ORTHOPEDIC AND SPINE HOSPITAL AT ARLINGTON,707 HIGHLANDER BOULEVARD,ARLINGTON,TX,76015,SPECIAL,OPEN,24,TARRANT,32.6828977770001,-97.116976767,PROPRIETARY,24,N
SOUTH TEXAS SPINE AND SURGICAL HOSPITAL,18600 NORTH HARDY OAK BOULEVARD,SAN ANTONIO,TX,78258,SPECIAL,OPEN,30,BEXAR,29.613253425,-98.4773671469999,PROPRIETARY,30,N
SHELBY BAPTIST MEDICAL CENTER,1000 FIRST STREET NORTH,ALABASTER,AL,35007,GENERAL ACUTE CARE,OPEN,252,SHELBY,33.252364867,-86.8130430149999,PROPRIETARY,252,Y
MEDICAL CENTER BARBOUR,820 WEST WASHINGTON STREET,EUFAULA,AL,36027,GENERAL ACUTE CARE,OPEN,74,BARBOUR,31.8886450800001,-85.156405419,GOVERNMENT - DISTRICT/AUTHORITY,74,Y
GROVE HILL MEMORIAL HOSPITAL,295 JACKSON HIGHWAY S,GROVE HILL,AL,36451,GENERAL ACUTE CARE,OPEN,50,CLARKE,31.694302296,-87.776024627,GOVERNMENT - DISTRICT/AUTHORITY,50,Y
ATMORE COMMUNITY HOSPITAL,401 MEDICAL PARK DR.,ATMORE,AL,36502,GENERAL ACUTE CARE,OPEN,51,ESCAMBIA,31.0170238650001,-87.478798513,NON-PROFIT,51,Y
GADSDEN REGIONAL MEDICAL CENTER,1007 GOODYEAR AVENUE,GADSDEN,AL,35903,GENERAL ACUTE CARE,OPEN,346,ETOWAH,34.0077362820001,-85.965982141,PROPRIETARY,346,Y
MOUNTAIN VIEW HOSPITAL,2325 CORONADO STREET,IDAHO FALLS,ID,83404,GENERAL ACUTE CARE,OPEN,43,BONNEVILLE,43.474366015,-111.987920703,NON-PROFIT,43,N
PORTNEUF MEDICAL CENTER,777 HOSPITAL WAY,POCATELLO,ID,83201,GENERAL ACUTE CARE,OPEN,205,BANNOCK,42.8738530050001,-112.420762032,PROPRIETARY,205,Y
MERCY HARVARD HOSPITAL,901 GRANT STREET,HARVARD,IL,60033,CRITICAL ACCESS,OPEN,35,MCHENRY,42.426236913,-88.60704005,NON-PROFIT,35,Y
HI-DESERT MEDICAL CENTER,6601 WHITE FEATHER ROAD,JOSHUA TREE,CA,92252,GENERAL ACUTE CARE,OPEN,179,SAN BERNARDINO,34.131899548,-116.275139237,GOVERNMENT - DISTRICT/AUTHORITY,179,Y
HEALDSBURG DISTRICT HOSPITAL,1375 UNIVERSITY STREET,HEALDSBURG,CA,95448,GENERAL ACUTE CARE,OPEN,43,SONOMA,38.627095508,-122.864401979,GOVERNMENT - DISTRICT/AUTHORITY,43,N
PALMDALE REGIONAL MEDICAL CENTER,38600 MEDICAL CENTER DRIVE,PALMDALE,CA,93551,GENERAL ACUTE CARE,OPEN,157,LOS ANGELES,34.5828776330001,-118.144366873,PROPRIETARY,157,Y
SAN DIMAS COMMUNITY HOSPITAL,1350 WEST COVINA BOULEVARD,SAN DIMAS,CA,91773,GENERAL ACUTE CARE,OPEN,101,LOS ANGELES,34.0975093230001,-117.834635766,PROPRIETARY,101,N
SAN GABRIEL VALLEY MEDICAL CENTER,438 W. LAS TUNAS DRIVE,SAN GABRIEL,CA,91776,GENERAL ACUTE CARE,OPEN,273,LOS ANGELES,34.100868785,-118.105918785,PROPRIETARY,273,N
FRESNO HEART AND SURGICAL HOSPITAL,15 E. AUDUBON DRIVE,FRESNO,CA,93720,GENERAL ACUTE CARE,OPEN,57,FRESNO,36.8601259070001,-119.788571731,PROPRIETARY,57,N
CHAPMAN GLOBAL MEDICAL CENTER,2601 EAST CHAPMAN AVENUE,ORANGE,CA,92869,GENERAL ACUTE CARE,OPEN,114,ORANGE,33.788614943,-117.826413156,PROPRIETARY,114,N
EASTSIDE MEDICAL CENTER,1700 MEDICAL WAY,SNELLVILLE,GA,30078,GENERAL ACUTE CARE,OPEN,281,GWINNETT,33.877568549,-84.021073872,PROPRIETARY,281,Y
PUTNAM GENERAL HOSPITAL,101 LAKE OCONEE PARKWAY,EATONTON,GA,31024,CRITICAL ACCESS,OPEN,25,PUTNAM,33.3358661950001,-83.370945622,GOVERNMENT - DISTRICT/AUTHORITY,25,Y
COLQUITT REGIONAL MEDICAL CENTER,3131 SOUTH MAIN ST,MOULTRIE,GA,31768,GENERAL ACUTE CARE,OPEN,99,COLQUITT,31.125630098,-83.7803788539999,GOVERNMENT - DISTRICT/AUTHORITY,99,Y
EVANS MEMORIAL HOSPITAL,200 NORTH RIVER STREET,CLAXTON,GA,30417,GENERAL ACUTE CARE,OPEN,49,EVANS,32.1658831440001,-81.899024445,GOVERNMENT - DISTRICT/AUTHORITY,49,Y
JEFFERSON HOSPITAL,1067 PEACHTREE STREET,LOUISVILLE,GA,30434,GENERAL ACUTE CARE,OPEN,37,JEFFERSON,33.009867494,-82.405545791,GOVERNMENT - LOCAL,37,Y
JEFF DAVIS HOSPITAL,163 S TALLAHASSEE ST,HAZLEHURST,GA,31539,GENERAL ACUTE CARE,OPEN,35,JEFF DAVIS,31.8572098610001,-82.607146961,GOVERNMENT - DISTRICT/AUTHORITY,35,Y
UNION GENERAL HOSPITAL,35 HOSPITAL CIRCLE,BLAIRSVILLE,GA,30512,GENERAL ACUTE CARE,OPEN,45,UNION,34.8861000000001,-83.9623,GOVERNMENT - DISTRICT/AUTHORITY,45,Y
TULANE MEDICAL CENTER,1415 TULANE AVE,NEW ORLEANS,LA,70112,GENERAL ACUTE CARE,OPEN,327,ORLEANS,29.954800113,-90.0769039149999,PROPRIETARY,327,Y
FRANKLIN FOUNDATION HOSPITAL,1097 NORTHWEST BLVD,FRANKLIN,LA,70538,GENERAL ACUTE CARE,OPEN,22,ST. MARY,29.800748013,-91.523828054,GOVERNMENT - DISTRICT/AUTHORITY,22,Y
EAST CARROLL PARISH HOSPITAL,336 N HOOD ST,LAKE PROVIDENCE,LA,71254,GENERAL ACUTE CARE,OPEN,11,EAST CARROLL,32.810569679,-91.172354437,GOVERNMENT - DISTRICT/AUTHORITY,11,Y
AVOYELLES HOSPITAL,4231 HIGHWAY 1192,MARKSVILLE,LA,71351,GENERAL ACUTE CARE,OPEN,35,AVOYELLES,31.1435451950001,-92.06294601,PROPRIETARY,35,Y
ALVARADO HOSPITAL MEDICAL CENTER,6655 ALVARADO ROAD,SAN DIEGO,CA,92120,GENERAL ACUTE CARE,OPEN,226,SAN DIEGO,32.7765863870001,-117.057064596,PROPRIETARY,226,N
PARADISE VALLEY HOSPITAL,2400 EAST FOURTH STREET,NATIONAL CITY,CA,91950,GENERAL ACUTE CARE,OPEN,227,SAN DIEGO,32.6853405530001,-117.082336705,PROPRIETARY,227,N
DESOTO REGIONAL HEALTH SYSTEM,207 JEFFERSON ST,MANSFIELD,LA,71052,GENERAL ACUTE CARE,OPEN,34,DE SOTO,32.035404129,-93.708147061,NOT AVAILABLE,34,Y
UCSF MEDICAL CENTER,505 PARNASSUS AVENUE,SAN FRANCISCO,CA,94143,GENERAL ACUTE CARE,OPEN,580,SAN FRANCISCO,37.7630768510001,-122.457877178,GOVERNMENT - LOCAL,580,N
COAST PLAZA HOSPITAL,13100 SOUTH STUDEBAKER ROAD,NORWALK,CA,90650,GENERAL ACUTE CARE,OPEN,117,LOS ANGELES,33.912693115,-118.09882162,PROPRIETARY,117,N
COMMUNITY HOSPITAL OF HUNTINGTON PARK,2623 EAST SLAUSON AVENUE,HUNTINGTON PARK,CA,90255,GENERAL ACUTE CARE,OPEN,81,LOS ANGELES,33.989489571,-118.224189855,PROPRIETARY,81,N
OLYMPIA MEDICAL CENTER,5900 WEST OLYMPIA BLVD,LOS ANGELES,CA,90036,GENERAL ACUTE CARE,OPEN,204,LOS ANGELES,34.0572922740001,-118.360527347,PROPRIETARY,204,N
HAZEL HAWKINS MEMORIAL HOSPITAL,911 SUNSET DRIVE,HOLLISTER,CA,95023,GENERAL ACUTE CARE,OPEN,119,SAN BENITO,36.8342012480001,-121.386193641,GOVERNMENT - DISTRICT/AUTHORITY,119,Y
FRESNO SURGICAL HOSPITAL,6125 NORTH FRESNO STREET,FRESNO,CA,93710,GENERAL ACUTE CARE,OPEN,27,FRESNO,36.8249140890001,-119.78216158,PROPRIETARY,27,N
WEST ANAHEIM MEDICAL CENTER,3033 WEST ORANGE AVENUE,ANAHEIM,CA,92804,GENERAL ACUTE CARE,OPEN,219,ORANGE,33.8253852140001,-117.995073632,PROPRIETARY,219,N
OAK VALLEY HOSPITAL DISTRICT,350 SOUTH OAK STREET,OAKDALE,CA,95361,GENERAL ACUTE CARE,OPEN,35,STANISLAUS,37.7576162720001,-120.860996573,GOVERNMENT - DISTRICT/AUTHORITY,35,Y
WASHINGTON REGIONAL MEDICAL CENTER,958 U S HIGHWAY 64 EAST,PLYMOUTH,NC,27962,GENERAL ACUTE CARE,OPEN,49,WASHINGTON,35.8627820830001,-76.729283681,GOVERNMENT - LOCAL,49,Y
NORTHSIDE MEDICAL CENTER,100 FRIST COURT,COLUMBUS,GA,31909,GENERAL ACUTE CARE,OPEN,100,MUSCOGEE,32.5345247990001,-84.951212572,NOT AVAILABLE,100,N
CHATUGE REGIONAL HOSPITAL,110 S MAIN STREET,HIAWASSEE,GA,30546,CRITICAL ACCESS,OPEN,25,TOWNS,34.946576458,-83.753915298,NOT AVAILABLE,25,Y
CANDLER HOSPITAL,5353 REYNOLDS STREET,SAVANNAH,GA,31405,GENERAL ACUTE CARE,OPEN,320,CHATHAM,32.0281666670001,-81.1001092509999,NOT AVAILABLE,320,N
TANNER MEDICAL CENTER - CARROLLTON,705 DIXIE STREET,CARROLLTON,GA,30117,GENERAL ACUTE CARE,OPEN,181,CARROLL,33.569477717,-85.0752261979999,GOVERNMENT - DISTRICT/AUTHORITY,181,Y
PIEDMONT FAYETTE HOSPITAL,1255 HIGHWAY 54 WEST,FAYETTEVILLE,GA,30214,GENERAL ACUTE CARE,OPEN,282,FAYETTE,33.452147106,-84.507989992,NOT AVAILABLE,282,Y
THEDACARE MEDICAL CENTER NEW LONDON,1405 MILL ST,NEW LONDON,WI,54961,CRITICAL ACCESS,OPEN,25,OUTAGAMIE,44.3811562670001,-88.733700853,NOT AVAILABLE,25,Y
AURORA ST LUKES MEDICAL CENTER,2900 W OKLAHOMA AVE,MILWAUKEE,WI,53215,GENERAL ACUTE CARE,OPEN,938,MILWAUKEE,42.989626227,-87.950210774,NON-PROFIT,938,Y
AURORA WEST ALLIS MEDICAL CENTER,8901 W LINCOLN AVE,WEST ALLIS,WI,53227,GENERAL ACUTE CARE,OPEN,350,MILWAUKEE,43.0014250450001,-88.023473891,NON-PROFIT,350,N
OCHSNER MEDICAL CENTER,1516 JEFFERSON HIGHWAY,NEW ORLEANS,LA,70121,GENERAL ACUTE CARE,OPEN,473,JEFFERSON,29.961401752,-90.145550567,NOT AVAILABLE,473,Y
AUGUSTA HEALTH,78 MEDICAL CENTER DRIVE,FISHERSVILLE,VA,22939,GENERAL ACUTE CARE,OPEN,255,AUGUSTA,38.0945244050001,-78.986837327,NON-PROFIT,255,Y
THEDACARE REGIONAL MEDICAL CENTER - NEENAH INC,130 2ND ST,NEENAH,WI,54956,GENERAL ACUTE CARE,OPEN,183,WINNEBAGO,44.1874895560001,-88.453384929,NON-PROFIT,183,Y
SANTA BARBARA COTTAGE HOSPITAL,400 W. PUEBLO STREET,SANTA BARBARA,CA,93105,GENERAL ACUTE CARE,OPEN,412,SANTA BARBARA,34.429466689,-119.723809039,NON-PROFIT,412,Y
SCOTTSDALE THOMPSON PEAK MEDICAL CENTER,7400 E. THOMPSON PEAK PARKWAY,SCOTTSDALE,AZ,85255,GENERAL ACUTE CARE,OPEN,92,MARICOPA,33.67112932,-111.922322403,NON-PROFIT,92,Y
STURGIS HOSPITAL,916 MYRTLE AVE,STURGIS,MI,49091,GENERAL ACUTE CARE,OPEN,84,ST. JOSEPH,41.7946286320001,-85.407564797,NON-PROFIT,84,Y
SPECTRUM HEALTH PENNOCK,1009 W GREEN ST,HASTINGS,MI,49058,GENERAL ACUTE CARE,OPEN,49,BARRY,42.6447739010001,-85.3028252409999,NON-PROFIT,49,Y
MCLAREN BAY REGION,1900 COLUMBUS AVE,BAY CITY,MI,48708,GENERAL ACUTE CARE,OPEN,338,BAY,43.5882164270001,-83.868396154,NON-PROFIT,338,Y
ASPIRUS KEWEENAW HOSPITAL,205 OSCEOLA,LAURIUM,MI,49913,GENERAL ACUTE CARE,OPEN,25,HOUGHTON,47.2387831730001,-88.443500848,NON-PROFIT,25,N
DICKINSON COUNTY MEMORIAL HOSPITAL,1721 S STEPHENSON AVE,IRON MOUNTAIN,MI,49801,GENERAL ACUTE CARE,OPEN,96,DICKINSON,45.809878058,-88.044451237,NON-PROFIT,96,N
FREDONIA REGIONAL HOSPITAL,1527 MADISON,FREDONIA,KS,66736,CRITICAL ACCESS,OPEN,34,WILSON,37.534067877,-95.8141520189999,GOVERNMENT - LOCAL,34,Y
MERCY HOSPITAL JOPLIN,100 MERCY WAY,JOPLIN,MO,64804,GENERAL ACUTE CARE,OPEN,240,NEWTON,37.036513395,-94.509709276,NON-PROFIT,240,Y
CAMERON REGIONAL MEDICAL CENTER,1600 EAST EVERGREEN ST,CAMERON,MO,64429,GENERAL ACUTE CARE,OPEN,58,CLINTON,39.7304349510001,-94.2180560309999,NON-PROFIT,58,Y
CENTERPOINT MEDICAL CENTER,19600 EAST 39TH STREET,INDEPENDENCE,MO,64057,GENERAL ACUTE CARE,OPEN,221,JACKSON,39.0495448040001,-94.348903822,PROPRIETARY,221,Y
RESEARCH MEDICAL CENTER,2316 EAST MEYER BOULEVARD,KANSAS CITY,MO,64132,GENERAL ACUTE CARE,OPEN,487,JACKSON,39.008899844,-94.5581250879999,PROPRIETARY,487,Y
NEVADA REGIONAL MEDICAL CENTER,800 SOUTH ASH STREET,NEVADA,MO,64772,GENERAL ACUTE CARE,OPEN,71,VERNON,37.831184524,-94.360485532,GOVERNMENT - LOCAL,71,Y
BATES COUNTY MEMORIAL HOSPITAL,615 WEST NURSERY STREET,BUTLER,MO,64730,GENERAL ACUTE CARE,OPEN,60,BATES,38.2490284370001,-94.342885883,GOVERNMENT - LOCAL,60,Y
BELTON REGIONAL MEDICAL CENTER,17065 S. 71 HIGHWAY,BELTON,MO,64012,GENERAL ACUTE CARE,OPEN,71,CASS,38.815813023,-94.503001913,PROPRIETARY,71,Y
BARNES-JEWISH WEST COUNTY HOSPITAL,12634 OLIVE BOULEVARD,CREVE COEUR,MO,63141,GENERAL ACUTE CARE,OPEN,113,ST. LOUIS,38.6762228900001,-90.467997971,NON-PROFIT,113,N
CHRISTIAN HOSPITAL NORTHEAST-NORTHWEST,11133 DUNN ROAD,ST. LOUIS,MO,63136,GENERAL ACUTE CARE,OPEN,482,ST. LOUIS,38.7765816890001,-90.240358059,NON-PROFIT,482,Y
STE GENEVIEVE COUNTY MEMORIAL HOSPITAL,800 STE. GENEVIEVE DRIVE,STE GENEVIEVE,MO,63670,CRITICAL ACCESS,OPEN,47,STE. GENEVIEVE,37.969342225,-90.0546549059999,GOVERNMENT - LOCAL,47,Y
FITZGIBBON HOSPITAL,2305 SOUTH 65 HIGHWAY,MARSHALL,MO,65340,GENERAL ACUTE CARE,OPEN,60,SALINE,39.0914981720001,-93.213159133,NON-PROFIT,60,Y
WRIGHT MEMORIAL HOSPITAL,191 IOWA BOULEVARD,TRENTON,MO,64683,CRITICAL ACCESS,OPEN,25,GRUNDY,40.0678669850001,-93.581639673,NON-PROFIT,25,Y
MERCY HOSPITAL WASHINGTON,901 EAST 5TH STREET,WASHINGTON,MO,63090,GENERAL ACUTE CARE,OPEN,148,FRANKLIN,38.5525900860001,-91.002134725,NON-PROFIT,148,N
PHELPS COUNTY REGIONAL MEDICAL CENTER,1000 WEST TENTH STREET,ROLLA,MO,65401,GENERAL ACUTE CARE,OPEN,242,PHELPS,37.9524895330001,-91.785982986,GOVERNMENT - LOCAL,242,Y
TEXAS COUNTY MEMORIAL HOSPITAL,1333 S. SAM HOUSTON BOULEVARD,HOUSTON,MO,65483,GENERAL ACUTE CARE,OPEN,66,TEXAS,37.316121685,-91.961168535,GOVERNMENT - LOCAL,66,Y
LAFAYETTE REGIONAL HEALTH CENTER,1500 STATE STREET,LEXINGTON,MO,64067,CRITICAL ACCESS,OPEN,32,LAFAYETTE,39.1897287740001,-93.877277911,PROPRIETARY,32,Y
HEDRICK MEDICAL CENTER,2799 NORTH WASHINGTON STREET,CHILLICOTHE,MO,64601,CRITICAL ACCESS,OPEN,25,LIVINGSTON,39.817141598,-93.551016211,NON-PROFIT,25,Y
NOVANT HEALTH HUNTERSVILLE MEDICAL CENTER,10030 GILEAD ROAD,HUNTERSVILLE,NC,28078,GENERAL ACUTE CARE,OPEN,91,MECKLENBURG,35.406444182,-80.860260895,NON-PROFIT,91,Y
NOVANT HEALTH MATTHEWS MEDICAL CENTER,1500 MATTHEWS TOWNSHIP PARKWAY,MATTHEWS,NC,28105,GENERAL ACUTE CARE,OPEN,146,MECKLENBURG,35.119984808,-80.714078413,NON-PROFIT,146,Y
NOVANT HEALTH ROWAN MEDICAL CENTER,612 MOCKSVILLE AVE,SALISBURY,NC,28144,GENERAL ACUTE CARE,OPEN,268,ROWAN,35.6812698420001,-80.470707938,NON-PROFIT,268,Y
SENTARA ALBEMARLE MEDICAL CENTER,1144 NORTH ROAD STREET,ELIZABETH CITY,NC,27906,GENERAL ACUTE CARE,OPEN,182,PASQUOTANK,36.323596314,-76.2179333289999,NON-PROFIT,182,Y
MERIT HEALTH RANKIN,350 CROSSGATES BOULEVARD,BRANDON,MS,39042,GENERAL ACUTE CARE,OPEN,134,RANKIN,32.2866429870001,-90.0347478049999,PROPRIETARY,134,Y
CAROLINAS HEALTHCARE SYSTEM KINGS MOUNTAIN,706 WEST KING STREET,KINGS MOUNTAIN,NC,28086,GENERAL ACUTE CARE,CLOSED,102,CLEVELAND,35.2415605350001,-81.357057955,NON-PROFIT,102,Y
NOVANT HEALTH MEDICAL PARK HOSPITAL,1950 SOUTH HAWTHORNE RD,WINSTON-SALEM,NC,27103,GENERAL ACUTE CARE,OPEN,22,FORSYTH,36.0758375710001,-80.2967607749999,NON-PROFIT,22,Y
JOHNSTON HEALTH,509 N. BRIGHT LEAF BLVD.,SMITHFIELD,NC,27577,GENERAL ACUTE CARE,OPEN,199,JOHNSTON,35.514414576,-78.334980779,GOVERNMENT - DISTRICT/AUTHORITY,199,Y
HAYWOOD REGIONAL MEDICAL CENTER,262 LEROY GEORGE DRIVE,CLYDE,NC,28721,GENERAL ACUTE CARE,OPEN,190,HAYWOOD,35.5253812770001,-82.9425088839999,GOVERNMENT - DISTRICT/AUTHORITY,190,Y
DAVIS REGIONAL MEDICAL CENTER,218 OLD MOCKSVILLE ROAD,STATESVILLE,NC,28687,GENERAL ACUTE CARE,OPEN,149,IREDELL,35.8184286740001,-80.828714738,PROPRIETARY,149,Y
PERSON MEMORIAL HOSPITAL,615 RIDGE RD,ROXBORO,NC,27573,GENERAL ACUTE CARE,OPEN,110,PERSON,36.4084534690001,-78.984895239,NON-PROFIT,110,Y
CAPE FEAR VALLEY MEDICAL CENTER,1638 OWEN DRIVE,FAYETTEVILLE,NC,28302,GENERAL ACUTE CARE,OPEN,600,CUMBERLAND,35.0318387250001,-78.9330536849999,NON-PROFIT,600,Y
OAKES COMMUNITY HOSPITAL,1200 N 7TH ST,OAKES,ND,58474,CRITICAL ACCESS,OPEN,20,DICKEY,46.1503806630001,-98.088894282,NON-PROFIT,20,Y
CHI ST ALEXIUS HEALTH WILLISTON,1301 15TH AVE W,WILLISTON,ND,58801,CRITICAL ACCESS,OPEN,25,WILLIAMS,48.1559507640001,-103.646013698,NON-PROFIT,25,Y
ST CLOUD REGIONAL MEDICAL CENTER,2906 17TH ST,SAINT CLOUD,FL,34769,GENERAL ACUTE CARE,OPEN,84,OSCEOLA,28.24362232,-81.3028067239999,PROPRIETARY,84,Y
BETHESDA HOSPITAL EAST,2815 S SEACREST BLVD,BOYNTON BEACH,FL,33435,GENERAL ACUTE CARE,OPEN,401,PALM BEACH,26.5050572330001,-80.070563971,NON-PROFIT,401,Y
GOOD SAMARITAN MEDICAL CENTER,1309 N FLAGLER DR,WEST PALM BEACH,FL,33401,GENERAL ACUTE CARE,OPEN,333,PALM BEACH,26.7254617310001,-80.0518812669999,PROPRIETARY,333,Y
WEST BOCA MEDICAL CENTER,21644 STATE RD 7,BOCA RATON,FL,33428,GENERAL ACUTE CARE,OPEN,195,PALM BEACH,26.3561962630001,-80.199188577,PROPRIETARY,195,Y
MORTON PLANT HOSPITAL,300 PINELLAS ST,CLEARWATER,FL,33756,GENERAL ACUTE CARE,OPEN,613,PINELLAS,27.952816747,-82.803696838,NON-PROFIT,613,Y
ST PETERSBURG GENERAL HOSPITAL,6500 38TH AVE N,SAINT PETERSBURG,FL,33710,GENERAL ACUTE CARE,OPEN,215,PINELLAS,27.8054392110001,-82.727538744,PROPRIETARY,215,N
SOUTH FLORIDA BAPTIST HOSPITAL,301 N ALEXANDER ST,PLANT CITY,FL,33563,GENERAL ACUTE CARE,OPEN,147,HILLSBOROUGH,28.0156788480001,-82.138929363,NON-PROFIT,147,Y
DOCTORS HOSPITAL OF SARASOTA,5731 BEE RIDGE RD,SARASOTA,FL,34233,GENERAL ACUTE CARE,OPEN,155,SARASOTA,27.3019576310001,-82.453350609,PROPRIETARY,155,N
CAPE CORAL HOSPITAL,636 DEL PRADO BLVD,CAPE CORAL,FL,33990,GENERAL ACUTE CARE,OPEN,291,LEE,26.6392051770001,-81.942022498,GOVERNMENT - DISTRICT/AUTHORITY,291,Y
CAPE CANAVERAL HOSPITAL,701 W COCOA BEACH CSWY,COCOA BEACH,FL,32931,GENERAL ACUTE CARE,OPEN,150,BREVARD,28.3601248030001,-80.6229851699999,NON-PROFIT,150,Y
MEMORIAL HOSPITAL MIRAMAR,1901 SW 172ND AVE,MIRAMAR,FL,33029,GENERAL ACUTE CARE,OPEN,178,BROWARD,25.9908681520001,-80.372751179,GOVERNMENT - DISTRICT/AUTHORITY,178,N
PLANTATION GENERAL HOSPITAL,401 NW 42ND AVE,PLANTATION,FL,33317,GENERAL ACUTE CARE,OPEN,264,BROWARD,26.1264094490001,-80.205267662,PROPRIETARY,264,N
UNIVERSITY HOSPITAL AND MEDICAL CENTER,7201 N UNIVERSITY DR,TAMARAC,FL,33321,GENERAL ACUTE CARE,OPEN,317,BROWARD,26.2121503280001,-80.254154295,PROPRIETARY,317,Y
MARINERS HOSPITAL,91500 OVERSEAS HWY,TAVERNIER,FL,33070,GENERAL ACUTE CARE,OPEN,25,MONROE,25.0061565440001,-80.522305079,NON-PROFIT,25,Y
NORTH SHORE MEDICAL CENTER,1100 NW 95TH ST,MIAMI,FL,33150,GENERAL ACUTE CARE,OPEN,337,MIAMI-DADE,25.8597859490001,-80.214704105,PROPRIETARY,337,N
SOUTH MIAMI HOSPITAL,6200 SW 73RD ST,MIAMI,FL,33143,GENERAL ACUTE CARE,OPEN,436,MIAMI-DADE,25.702107773,-80.294273177,NON-PROFIT,436,N
ATHENS LIMESTONE HOSPITAL,700 WEST MARKET STREET,ATHENS,AL,35611,GENERAL ACUTE CARE,OPEN,71,LIMESTONE,34.8041639300001,-86.978407208,PROPRIETARY,71,N
UNIVERSITY OF ALABAMA HOSPITAL,619 SOUTH 19TH STREET,BIRMINGHAM,AL,35233,GENERAL ACUTE CARE,OPEN,1157,JEFFERSON,33.505603292,-86.8020353969999,GOVERNMENT - STATE,1157,Y
MEDICAL CENTER ENTERPRISE,400 NORTH EDWARDS STREET,ENTERPRISE,AL,36330,GENERAL ACUTE CARE,OPEN,131,COFFEE,31.318772396,-85.855369739,PROPRIETARY,131,N
EVERGREEN MEDICAL CENTER,101 CRESTVIEW AVENUE,EVERGREEN,AL,36401,GENERAL ACUTE CARE,OPEN,58,CONECUH,31.4307985720001,-86.940483587,PROPRIETARY,58,Y
FAYETTE MEDICAL CENTER,"1653 TEMPLE AVENUE, NORTH",FAYETTE,AL,35555,GENERAL ACUTE CARE,OPEN,61,FAYETTE,33.70817814,-87.8246889819999,GOVERNMENT - DISTRICT/AUTHORITY,61,Y
CRESTWOOD MEDICAL CENTER,ONE HOSPITAL DRIVE,HUNTSVILLE,AL,35801,GENERAL ACUTE CARE,OPEN,147,MADISON,34.693611397,-86.572171543,PROPRIETARY,147,N
MCCULLOUGH-HYDE MEMORIAL HOSPITAL,110 NORTH POPLAR STREET,OXFORD,OH,45056,GENERAL ACUTE CARE,OPEN,70,BUTLER,39.5125961590001,-84.74153696,NON-PROFIT,70,Y
RMC JACKSONVILLE,1701 SOUTH PELHAM ROAD,JACKSONVILLE,AL,36265,GENERAL ACUTE CARE,CLOSED,104,CALHOUN,33.784932246,-85.76355079,PROPRIETARY,104,N
WALKER BAPTIST MEDICAL CENTER,"3400 HIGHWAY 78, EAST",JASPER,AL,35502,GENERAL ACUTE CARE,OPEN,267,WALKER,33.8427289040001,-87.235999582,PROPRIETARY,267,Y
GREATER REGIONAL MEDICAL CENTER,1700 WEST TOWNLINE ROAD,CRESTON,IA,50801,CRITICAL ACCESS,OPEN,25,UNION,41.0701663900001,-94.3840950059999,GOVERNMENT - LOCAL,25,Y
LAWRENCE MEDICAL CENTER,202 HOSPITAL ST,MOULTON,AL,35650,GENERAL ACUTE CARE,OPEN,98,LAWRENCE,34.483414651,-87.285310435,GOVERNMENT - LOCAL,98,Y
MIZELL MEMORIAL HOSPITAL,702 MAIN STREET,OPP,AL,36467,GENERAL ACUTE CARE,OPEN,99,COVINGTON,31.2919582380001,-86.254526923,NON-PROFIT,99,N
DALE MEDICAL CENTER,126 HOSPITAL AVENUE,OZARK,AL,36360,GENERAL ACUTE CARE,OPEN,89,DALE,31.4515766550001,-85.632088035,PROPRIETARY,89,Y
BUCYRUS COMMUNITY HOSPITAL,629 NORTH SANDUSKY AVENUE,BUCYRUS,OH,44820,CRITICAL ACCESS,OPEN,25,CRAWFORD,40.8153398970001,-82.976632127,NON-PROFIT,25,Y
GALION COMMUNITY HOSPITAL,269 PORTLAND WAY SOUTH,GALION,OH,44833,CRITICAL ACCESS,OPEN,50,CRAWFORD,40.730903767,-82.802257211,NON-PROFIT,50,Y
HELEN KELLER MEMORIAL HOSPITAL,1300 S. MONTGOMERY AVENUE,SHEFFIELD,AL,35660,GENERAL ACUTE CARE,OPEN,185,COLBERT,34.745950151,-87.700261461,GOVERNMENT - DISTRICT/AUTHORITY,185,Y
COOSA VALLEY MEDICAL CENTER,315 WEST HICKORY STREET,SYLACAUGA,AL,35150,GENERAL ACUTE CARE,OPEN,163,TALLADEGA,33.164560226,-86.2554875819999,NON-PROFIT,163,N
CITIZENS BAPTIST MEDICAL CENTER,604 STONE AVENUE,TALLADEGA,AL,35161,GENERAL ACUTE CARE,OPEN,122,TALLADEGA,33.4402768210001,-86.0907833959999,NON-PROFIT,122,Y
BULLOCK COUNTY HOSPITAL,102 WEST CONECUH AVENUE,UNION SPRINGS,AL,36089,GENERAL ACUTE CARE,OPEN,61,BULLOCK,32.146635109,-85.717009326,PROPRIETARY,61,N
ELMORE COMMUNITY HOSPITAL,500 HOSPITAL DRIVE,WETUMPKA,AL,36092,GENERAL ACUTE CARE,OPEN,69,ELMORE,32.552266972,-86.1863964459999,PROPRIETARY,69,Y
UNIVERSITY HOSPITALS AHUJA MEDICAL CENTER,3999 RICHMOND ROAD,BEACHWOOD,OH,44122,GENERAL ACUTE CARE,OPEN,144,CUYAHOGA,41.4521988720001,-81.4946935689999,NON-PROFIT,144,Y
PARMA COMMUNITY GENERAL HOSPITAL,7007 POWERS BOULEVARD,PARMA,OH,44129,GENERAL ACUTE CARE,OPEN,348,CUYAHOGA,41.3821198360001,-81.731394677,NON-PROFIT,348,Y
WAYNE HOSPITAL,835 SWEITZER STREET,GREENVILLE,OH,45331,GENERAL ACUTE CARE,OPEN,104,DARKE,40.089291772,-84.634741097,NON-PROFIT,104,N
WILLIAMSPORT REGIONAL MEDICAL CENTER,700 HIGH STREET,WILLIAMSPORT,PA,17701,GENERAL ACUTE CARE,OPEN,228,LYCOMING,41.2470106280001,-77.015966971,NON-PROFIT,228,Y
GRADY MEMORIAL HOSPITAL,561 WEST CENTRAL AVENUE,DELAWARE,OH,43015,GENERAL ACUTE CARE,OPEN,152,DELAWARE,40.305514024,-83.089252856,NON-PROFIT,152,Y
WELLSPAN SURGERY AND REHABILITATION HOSPITAL,55 MONUMENT ROAD,YORK,PA,17403,REHABILITATION,OPEN,73,YORK,39.926192787,-76.71895855,PROPRIETARY,73,N
HOLY NAME MEDICAL CENTER,718 TEANECK ROAD,TEANECK,NJ,7666,GENERAL ACUTE CARE,OPEN,372,BERGEN,40.88299153,-74.0104003289999,NON-PROFIT,372,N
CLARA MAASS MEDICAL CENTER,1 CLARA MAASS DRIVE,BELLEVILLE,NJ,7109,GENERAL ACUTE CARE,OPEN,469,ESSEX,40.7856713480001,-74.176321114,NON-PROFIT,469,N
EAST ORANGE GENERAL HOSPITAL,300 CENTRAL AVENUE,EAST ORANGE,NJ,7018,GENERAL ACUTE CARE,OPEN,212,ESSEX,40.754603563,-74.2136013959999,PROPRIETARY,212,N
INSPIRA MEDICAL CENTER VINELAND,1505 WEST SHERMAN AVENUE,VINELAND,NJ,8360,GENERAL ACUTE CARE,OPEN,335,CUMBERLAND,39.445475716,-75.058968984,NON-PROFIT,335,Y
NEWTON MEDICAL CENTER,175 HIGH STREET,NEWTON,NJ,7860,GENERAL ACUTE CARE,OPEN,146,SUSSEX,41.0576481510001,-74.768442831,NON-PROFIT,146,Y
OCEAN MEDICAL CENTER,425 JACK MARTIN BOULEVARD,BRICK,NJ,8724,GENERAL ACUTE CARE,OPEN,281,OCEAN,40.0771830080001,-74.1314468429999,NON-PROFIT,281,N
CAREPOINT HEALTH - BAYONNE MEDICAL CENTER,29 EAST 29TH ST,BAYONNE,NJ,7002,GENERAL ACUTE CARE,OPEN,261,HUDSON,40.668303693,-74.112713941,PROPRIETARY,261,N
CAREPOINT HEALTH-CHRIST HOSPITAL,176 PALISADE AVE,JERSEY CITY,NJ,7306,GENERAL ACUTE CARE,OPEN,358,HUDSON,40.734267624,-74.0499582689999,PROPRIETARY,358,N
SOUTHEASTERN OHIO REGIONAL MEDICAL CENTER,1341 NORTH CLARK STREET,CAMBRIDGE,OH,43725,GENERAL ACUTE CARE,OPEN,189,GUERNSEY,40.0414731870001,-81.5773923359999,NON-PROFIT,189,Y
TUCSON MEDICAL CENTER,5301 EAST GRANT ROAD,TUCSON,AZ,85712,GENERAL ACUTE CARE,OPEN,541,PIMA,32.2523042510001,-110.879298849,NON-PROFIT,541,Y
BELLIN MEMORIAL HOSPITAL,744 S WEBSTER AVE,GREEN BAY,WI,54305,GENERAL ACUTE CARE,OPEN,244,BROWN,44.50224209,-88.011285591,NON-PROFIT,244,Y
PARKVIEW LAGRANGE HOSPITAL,207 N TOWNLINE RD,LAGRANGE,IN,46761,CRITICAL ACCESS,OPEN,25,LAGRANGE,41.6458040900001,-85.4261370569999,NON-PROFIT,25,Y
MORROW COUNTY HOSPITAL,651 WEST MARION ROAD,MOUNT GILEAD,OH,43338,CRITICAL ACCESS,OPEN,22,MORROW,40.547981168,-82.850406603,GOVERNMENT - LOCAL,22,Y
OHIOHEALTH SHELBY HOSPITAL,199 WEST MAIN STREET,SHELBY,OH,44875,CRITICAL ACCESS,OPEN,40,RICHLAND,40.882406732,-82.674175077,NON-PROFIT,40,N
ADENA REGIONAL MEDICAL CENTER,272 HOSPITAL ROAD,CHILLICOTHE,OH,45601,GENERAL ACUTE CARE,OPEN,261,ROSS,39.3964977740001,-82.9676161089999,NON-PROFIT,261,Y
BANNER HEART HOSPITAL,6750 E. BAYWOOD AVE.,MESA,AZ,85206,GENERAL ACUTE CARE,OPEN,111,MARICOPA,33.411692068,-111.686492314,NON-PROFIT,111,Y
JACKSON HOSPITAL,4250 HOSPITAL DR,MARIANNA,FL,32446,GENERAL ACUTE CARE,OPEN,62,JACKSON,30.786844413,-85.241314825,GOVERNMENT - DISTRICT/AUTHORITY,62,Y
DUPONT HOSPITAL LLC,2520 E DUPONT RD,FORT WAYNE,IN,46825,GENERAL ACUTE CARE,OPEN,131,ALLEN,41.17526916,-85.108930621,PROPRIETARY,131,Y
ORTHOPAEDIC HOSPITAL AT PARKVIEW NORTH LLC,11130 PARKVIEW CIRCLE DR,FORT WAYNE,IN,46845,GENERAL ACUTE CARE,OPEN,37,ALLEN,41.1895775790001,-85.1006695739999,PROPRIETARY,37,Y
SOUTHERN HILLS HOSPITAL AND MEDICAL CENTER,9300 WEST SUNSET ROAD,LAS VEGAS,NV,89148,GENERAL ACUTE CARE,OPEN,246,CLARK,36.072656244,-115.295239233,PROPRIETARY,246,Y
MARGARET MARY HEALTH,321 MITCHELL AVE,BATESVILLE,IN,47006,CRITICAL ACCESS,OPEN,25,RIPLEY,39.3050248960001,-85.222526188,NON-PROFIT,25,N
DAVIESS COMMUNITY HOSPITAL,1314 E WALNUT ST,WASHINGTON,IN,47501,GENERAL ACUTE CARE,OPEN,80,DAVIESS,38.659613843,-87.159752398,GOVERNMENT - LOCAL,80,Y
PARKVIEW NOBLE HOSPITAL,401 SAWYER RD,KENDALLVILLE,IN,46755,GENERAL ACUTE CARE,OPEN,31,NOBLE,41.4483403450001,-85.2961583109999,NON-PROFIT,31,Y
DEACONESS HOSPITAL INC,600 MARY ST,EVANSVILLE,IN,47747,GENERAL ACUTE CARE,OPEN,509,VANDERBURGH,37.983739541,-87.571106776,NON-PROFIT,509,Y
GRACE MEDICAL CENTER,2000 W BALTIMORE STREET,BALTIMORE,MD,21223,GENERAL ACUTE CARE,OPEN,125,BALTIMORE CITY,39.2883463000001,-76.649252984,NON-PROFIT,125,N
ELKHART GENERAL HOSPITAL,600 EAST BLVD,ELKHART,IN,46514,GENERAL ACUTE CARE,OPEN,270,ELKHART,41.6793473500001,-85.993270563,NON-PROFIT,270,Y
INDIANA UNIVERSITY HEALTH BALL MEMORIAL HOSPITAL,2401 UNIVERSITY AVE,MUNCIE,IN,47303,GENERAL ACUTE CARE,OPEN,379,DELAWARE,40.196777534,-85.415555943,NON-PROFIT,379,Y
COMMUNITY HOSPITAL,901 MACARTHUR BLVD,MUNSTER,IN,46321,GENERAL ACUTE CARE,OPEN,458,LAKE,41.5506175090001,-87.505909606,NON-PROFIT,458,Y
METHODIST HOSPITALS INC,600 GRANT ST,GARY,IN,46402,GENERAL ACUTE CARE,OPEN,536,LAKE,41.599559432,-87.357670334,NON-PROFIT,536,Y
INDIANA UNIVERSITY HEALTH TIPTON HOSPITAL INC,1000 S MAIN ST,TIPTON,IN,46072,CRITICAL ACCESS,OPEN,25,TIPTON,40.2719303540001,-86.042162253,NON-PROFIT,25,N
MARION GENERAL HOSPITAL,441 N WABASH AVE,MARION,IN,46952,GENERAL ACUTE CARE,OPEN,97,GRANT,40.5636952030001,-85.664163259,NON-PROFIT,97,Y
PARKVIEW HUNTINGTON HOSPITAL,2001 STULTS RD,HUNTINGTON,IN,46750,GENERAL ACUTE CARE,OPEN,36,HUNTINGTON,40.9058777380001,-85.4887469829999,NON-PROFIT,36,Y
FAYETTE REGIONAL HEALTH SYSTEM,1941 VIRGINIA AVE,CONNERSVILLE,IN,47331,GENERAL ACUTE CARE,OPEN,99,FAYETTE,39.6562381750001,-85.1326609979999,NON-PROFIT,99,N
INDIANA UNIVERSITY HEALTH WHITE MEMORIAL HOSPITAL,720 SOUTH SIXTH ST,MONTICELLO,IN,47960,CRITICAL ACCESS,OPEN,25,WHITE,40.733974689,-86.777599605,NON-PROFIT,25,Y
ABRAZO SCOTTSDALE CAMPUS,3929 EAST BELL ROAD,PHOENIX,AZ,85032,GENERAL ACUTE CARE,OPEN,136,MARICOPA,33.639758182,-111.997469967,PROPRIETARY,136,Y
DAY KIMBALL HOSPITAL,320 POMFRET STREET,PUTNAM,CT,6260,GENERAL ACUTE CARE,OPEN,104,WINDHAM,41.9066599810001,-71.914455204,NON-PROFIT,104,Y
GRIFFIN HOSPITAL,130 DIVISION ST,DERBY,CT,6418,GENERAL ACUTE CARE,OPEN,160,NEW HAVEN,41.3356129970001,-73.089205142,NON-PROFIT,160,N
NORTH OKALOOSA MEDICAL CENTER,151 REDSTONE AVE SE,CRESTVIEW,FL,32539,GENERAL ACUTE CARE,OPEN,110,OKALOOSA,30.735354627,-86.562525286,PROPRIETARY,110,Y
TALLAHASSEE MEMORIAL HOSPITAL,1300 MICCOSUKEE RD,TALLAHASSEE,FL,32308,GENERAL ACUTE CARE,OPEN,772,LEON,30.456880933,-84.261407288,NON-PROFIT,772,Y
BAPTIST HOSPITAL,1000 W MORENO ST,PENSACOLA,FL,32501,GENERAL ACUTE CARE,OPEN,492,ESCAMBIA,30.429417895,-87.230420903,NON-PROFIT,492,Y
BAPTIST MEDICAL CENTER SOUTH,14550 OLD SAINT AUGUSTINE RD,JACKSONVILLE,FL,32258,GENERAL ACUTE CARE,OPEN,226,DUVAL,30.138777863,-81.5353848889999,NON-PROFIT,226,Y
HEALTHMARK REGIONAL MEDICAL CENTER,4413 US HWY 331 S,DEFUNIAK SPRINGS,FL,32435,GENERAL ACUTE CARE,OPEN,50,WALTON,30.6597162210001,-86.117950419,PROPRIETARY,50,N
CARSON TAHOE REGIONAL MEDICAL CENTER,1600 MEDICAL PKWY,CARSON CITY,NV,89703,GENERAL ACUTE CARE,OPEN,211,CARSON CITY,39.2021195900001,-119.784383092,NON-PROFIT,211,Y
JENNERSVILLE REGIONAL HOSPITAL,1015 WEST BALTIMORE PIKE,WEST GROVE,PA,19390,GENERAL ACUTE CARE,OPEN,59,CHESTER,39.8220390000001,-75.887734999,PROPRIETARY,59,Y
CORRY MEMORIAL HOSPITAL,612 WEST SMITH STREET,CORRY,PA,16407,GENERAL ACUTE CARE,CLOSED,35,ERIE,41.9246130010001,-79.653311999,NON-PROFIT,35,Y
CAPE COD HOSPITAL,27 PARK STREET,BARNSTABLE,MA,2601,GENERAL ACUTE CARE,OPEN,252,BARNSTABLE,41.6534,-70.2728999999999,NON-PROFIT,252,N
BELOIT MEMORIAL HOSPITAL,1969 W HART RD,BELOIT,WI,53511,GENERAL ACUTE CARE,OPEN,256,ROCK,42.5482977120001,-89.008431523,NON-PROFIT,256,Y
CARNEY HOSPITAL,2100 DORCHESTER AVENUE,BOSTON,MA,2124,GENERAL ACUTE CARE,OPEN,159,SUFFOLK,42.2775,-71.0654,NON-PROFIT,159,N
HEYWOOD HOSPITAL,242 GREEN STREET,GARDNER,MA,1440,GENERAL ACUTE CARE,OPEN,134,WORCESTER,42.5863000000001,-71.9870999999999,NON-PROFIT,134,N
NEWTON-WELLESLEY HOSPITAL,2014 WASHINGTON STREET,NEWTON,MA,2462,GENERAL ACUTE CARE,OPEN,265,MIDDLESEX,42.3312000000001,-71.246,NON-PROFIT,265,N
BAYSTATE MEDICAL CENTER,759 CHESTNUT STREET,SPRINGFIELD,MA,1199,GENERAL ACUTE CARE,OPEN,724,HAMPDEN,42.1217,-72.6032,NON-PROFIT,724,Y
OWATONNA HOSPITAL,2250 26TH STREET NORTHWEST,OWATONNA,MN,55060,GENERAL ACUTE CARE,OPEN,43,STEELE,44.1120137030001,-93.25109201,NON-PROFIT,43,Y
UNITED HOSPITAL,333 NORTH SMITH AVENUE,ST PAUL,MN,55102,GENERAL ACUTE CARE,OPEN,546,RAMSEY,44.943379813,-93.107144935,NON-PROFIT,546,Y
KOOTENAI HEALTH,2003 KOOTENAI HEALTH WAY,COEUR D'ALENE,ID,83814,GENERAL ACUTE CARE,OPEN,292,KOOTENAI,47.695503316,-116.793702672,GOVERNMENT - DISTRICT/AUTHORITY,292,Y
METHODIST HOSPITAL UNION COUNTY,4604 U.S. HWY. 60W,MORGANFIELD,KY,42437,GENERAL ACUTE CARE,OPEN,25,UNION,37.628796461,-87.94765598,NON-PROFIT,25,Y
THE MEDICAL CENTER AT FRANKLIN,1100 BROOKHAVEN ROAD,FRANKLIN,KY,42134,GENERAL ACUTE CARE,OPEN,25,SIMPSON,36.7000175790001,-86.576828386,NON-PROFIT,25,Y
PALOS COMMUNITY HOSPITAL,12251 SOUTH 80TH AVENUE,PALOS HEIGHTS,IL,60464,GENERAL ACUTE CARE,OPEN,377,COOK,41.6692109270001,-87.813443996,NON-PROFIT,377,Y
ROSELAND COMMUNITY HOSPITAL,45 W 111TH STREET,CHICAGO,IL,60628,GENERAL ACUTE CARE,OPEN,115,COOK,41.692299414,-87.626009757,NON-PROFIT,115,N
BLACK RIVER MEMORIAL HOSPITAL,711 W ADAMS ST,BLACK RIVER FALLS,WI,54615,GENERAL ACUTE CARE,OPEN,25,JACKSON,44.3032410970001,-90.855151436,NON-PROFIT,25,Y
THOMAS MEMORIAL HOSPITAL,4605 MACCORKLE AVE SW,SOUTH CHARLESTON,WV,25309,GENERAL ACUTE CARE,OPEN,241,KANAWHA,38.354865105,-81.726866523,NON-PROFIT,241,N
UNITED HOSPITAL CENTER,327 MEDICAL PARK DRIVE,BRIDGEPORT,WV,26330,GENERAL ACUTE CARE,OPEN,292,HARRISON,39.32831,-80.23946,NON-PROFIT,292,Y
RICHLAND MEMORIAL HOSPITAL,800 EAST LOCUST,OLNEY,IL,62450,GENERAL ACUTE CARE,OPEN,90,RICHLAND,38.736543571,-88.0771728889999,NON-PROFIT,90,Y
JENNIE STUART MEDICAL CENTER,320 WEST 18TH STREET,HOPKINSVILLE,KY,42241,GENERAL ACUTE CARE,OPEN,194,CHRISTIAN,36.8611871160001,-87.494951248,NON-PROFIT,194,Y
OHIO VALLEY MEDICAL CENTER,2000 EOFF STREET,WHEELING,WV,26003,GENERAL ACUTE CARE,OPEN,218,OHIO,40.0600745780001,-80.721680642,NON-PROFIT,218,N
ANDERSON HOSPITAL,6800 STATE ROUTE 162,MARYVILLE,IL,62062,GENERAL ACUTE CARE,OPEN,154,MADISON,38.7367705780001,-89.946707681,NON-PROFIT,154,Y
MERCY HOSPITAL KINGFISHER,1000 KINGFISHER REGIONAL HOSPITAL DRIVE,KINGFISHER,OK,73750,CRITICAL ACCESS,OPEN,25,KINGFISHER,35.8102394260001,-97.944912702,NOT AVAILABLE,25,Y
COPLEY HOSPITAL,528 WASHINGTON HWY,MORRISVILLE,VT,5661,CRITICAL ACCESS,OPEN,25,LAMOILLE,44.5534351800001,-72.591430293,NON-PROFIT,25,N
HILLSBORO AREA HOSPITAL,1200 E TREMONT STREET,HILLSBORO,IL,62049,CRITICAL ACCESS,OPEN,25,MONTGOMERY,39.150930343,-89.4800431099999,NON-PROFIT,25,Y
ST JOSEPH MEMORIAL HOSPITAL,2 SOUTH HOSPITAL DRIVE,MURPHYSBORO,IL,62966,CRITICAL ACCESS,OPEN,25,JACKSON,37.7737123370001,-89.3247550139999,NON-PROFIT,25,Y
CROSSING RIVERS HEALTH MEDICAL CENTER,37868 US HWY 18,PRAIRIE DU CHIEN,WI,53821,CRITICAL ACCESS,OPEN,25,CRAWFORD,43.021873052,-91.113127184,NON-PROFIT,25,Y
DIVINE SAVIOR HEALTHCARE,2817 NEW PINERY RD,PORTAGE,WI,53901,GENERAL ACUTE CARE,OPEN,73,COLUMBIA,43.5669499850001,-89.466510601,NON-PROFIT,73,Y
MEMORIAL HERMANN TEXAS MEDICAL CENTER,6411 FANNIN STREET,HOUSTON,TX,77030,GENERAL ACUTE CARE,OPEN,1082,HARRIS,29.7145511730001,-95.3962820259999,NON-PROFIT,1082,Y
KANSAS HEART HOSPITAL,3601 NORTH WEBB ROAD,WICHITA,KS,67226,SPECIAL,OPEN,54,SEDGWICK,37.7500383830001,-97.227543268,PROPRIETARY,54,N
HENDRICK MEDICAL CENTER,1900 PINE,ABILENE,TX,79601,GENERAL ACUTE CARE,OPEN,522,TAYLOR,32.472176468,-99.733954404,NON-PROFIT,522,Y
NORTHWEST TEXAS HOSPITAL,1501 S COULTER ROAD,AMARILLO,TX,79106,GENERAL ACUTE CARE,OPEN,385,POTTER,35.1996694310001,-101.920234741,PROPRIETARY,385,Y
VALLEY REGIONAL MEDICAL CENTER,100A E ALTON GLOOR BLVD,BROWNSVILLE,TX,78526,GENERAL ACUTE CARE,OPEN,214,CAMERON,25.9776129860001,-97.51480112,PROPRIETARY,214,Y
ST BERNARD HOSPITAL,326 W 64TH ST,CHICAGO,IL,60621,GENERAL ACUTE CARE,OPEN,100,COOK,41.778394561,-87.6336013389999,NON-PROFIT,100,N
BROWNWOOD REGIONAL MEDICAL CENTER,1501 BURNETT ROAD,BROWNWOOD,TX,76801,GENERAL ACUTE CARE,OPEN,194,BROWN,31.677343922,-98.993833841,PROPRIETARY,194,Y
CHILDRESS REGIONAL MEDICAL CENTER,901 HWY 83 NORTH,CHILDRESS,TX,79201,GENERAL ACUTE CARE,OPEN,39,CHILDRESS,34.439266784,-100.226733301,GOVERNMENT - DISTRICT/AUTHORITY,39,Y
COLLEGE STATION MEDICAL CENTER,1604 ROCK PRAIRIE ROAD,COLLEGE STATION,TX,77845,GENERAL ACUTE CARE,OPEN,167,BRAZOS,30.5813238120001,-96.2899901489999,PROPRIETARY,167,Y
CHRISTUS SPOHN HOSPITAL CORPUS CHRISTI,2606 HOSPITAL BOULEVARD,CORPUS CHRISTI,TX,78405,GENERAL ACUTE CARE,OPEN,341,NUECES,27.7798902010001,-97.416364903,NON-PROFIT,341,Y
TEXAS HEALTH PRESBYTERIAN HOSPITAL DENTON,3000 I-35,DENTON,TX,76201,GENERAL ACUTE CARE,OPEN,255,DENTON,33.2176153820001,-97.166588955,PROPRIETARY,255,Y
UNIVERSITY MEDICAL CENTER OF EL PASO,4815 ALAMEDA AVENUE,EL PASO,TX,79905,GENERAL ACUTE CARE,OPEN,394,EL PASO,31.7716110870001,-106.435355201,GOVERNMENT - DISTRICT/AUTHORITY,394,Y
ENNIS REGIONAL MEDICAL CENTER,2201 WEST LAMPASAS STREET,ENNIS,TX,75119,GENERAL ACUTE CARE,OPEN,60,ELLIS,32.306724548,-96.641491039,PROPRIETARY,60,Y
HARLINGEN MEDICAL CENTER,5501 SOUTH EXPRESSWAY 77,HARLINGEN,TX,78550,GENERAL ACUTE CARE,OPEN,112,CAMERON,26.157450307,-97.675302863,PROPRIETARY,112,Y
HILL REGIONAL HOSPITAL,101 CIRCLE DRIVE,HILLSBORO,TX,76645,GENERAL ACUTE CARE,OPEN,116,HILL,32.01263139,-97.099259682,PROPRIETARY,116,Y
UNITED MEMORIAL MEDICAL CENTER,510 WEST TIDWELL ROAD,HOUSTON,TX,77091,GENERAL ACUTE CARE,OPEN,106,HARRIS,29.847812773,-95.40845777,PROPRIETARY,106,Y
HUNTSVILLE MEMORIAL HOSPITAL,110 MEMORIAL HOSPITAL DRIVE,HUNTSVILLE,TX,77340,GENERAL ACUTE CARE,OPEN,123,WALKER,30.6985499910001,-95.558986955,NON-PROFIT,123,Y
CHRISTUS SPOHN HOSPITAL KLEBERG,1311 GENERAL CAVAZOS BLVD,KINGSVILLE,TX,78363,GENERAL ACUTE CARE,OPEN,100,KLEBERG,27.4900728110001,-97.850653784,NON-PROFIT,100,Y
LAREDO MEDICAL CENTER,1700 EAST SAUNDERS STREET,LAREDO,TX,78041,GENERAL ACUTE CARE,OPEN,326,WEBB,27.532859758,-99.478291693,PROPRIETARY,326,Y
LONGVIEW REGIONAL MEDICAL CENTER,2901 NORTH FOURTH STREET,LONGVIEW,TX,75605,GENERAL ACUTE CARE,OPEN,230,GREGG,32.532885036,-94.7305140989999,PROPRIETARY,230,Y
COVENANT MEDICAL CENTER,3615 19TH STREET,LUBBOCK,TX,79410,GENERAL ACUTE CARE,OPEN,525,LUBBOCK,33.5769391330001,-101.891995039,NON-PROFIT,525,Y
UNIVERSITY MEDICAL CENTER,602 INDIANA AVENUE,LUBBOCK,TX,79415,GENERAL ACUTE CARE,OPEN,412,LUBBOCK,33.587967135,-101.891298508,GOVERNMENT - DISTRICT/AUTHORITY,412,Y
WOODLAND HEIGHTS MEDICAL CENTER,505 S. JOHN REDDITT DR.,LUFKIN,TX,75904,GENERAL ACUTE CARE,OPEN,149,ANGELINA,31.328399474,-94.754058839,PROPRIETARY,149,Y
METHODIST MANSFIELD MEDICAL CENTER,2700 EAST BROAD STREET,MANSFIELD,TX,76063,GENERAL ACUTE CARE,OPEN,254,TARRANT,32.5679899420001,-97.0944448449999,NON-PROFIT,254,Y
FALLS COMMUNITY HOSPITAL AND CLINIC,322 COLEMAN STREET,MARLIN,TX,76661,GENERAL ACUTE CARE,OPEN,36,FALLS,31.3072024470001,-96.894003203,NON-PROFIT,36,N
RIO GRANDE REGIONAL HOSPITAL,101 EAST RIDGE ROAD,MCALLEN,TX,78503,GENERAL ACUTE CARE,OPEN,320,HIDALGO,26.186362489,-98.220773774,PROPRIETARY,320,Y
DALLAS REGIONAL MEDICAL CENTER,1011 NORTH GALLOWAY AVENUE,MESQUITE,TX,75149,GENERAL ACUTE CARE,OPEN,202,DALLAS,32.7787904750001,-96.6005102949999,PROPRIETARY,202,Y
MIDLAND MEMORIAL HOSPITAL,400 ROSALIND REDFERN GROVER PARKWAY,MIDLAND,TX,79701,GENERAL ACUTE CARE,OPEN,468,MIDLAND,31.9959200870001,-102.099503312,GOVERNMENT - DISTRICT/AUTHORITY,468,Y
PALO PINTO GENERAL HOSPITAL,400 SOUTHWEST 25TH AVENUE,MINERAL WELLS,TX,76067,GENERAL ACUTE CARE,OPEN,74,PALO PINTO,32.798920755,-98.1450907829999,GOVERNMENT - DISTRICT/AUTHORITY,74,Y
NOCONA GENERAL HOSPITAL,100 PARK ROAD,NOCONA,TX,76255,GENERAL ACUTE CARE,OPEN,38,MONTAGUE,33.777274419,-97.7327010339999,GOVERNMENT - DISTRICT/AUTHORITY,38,Y
MEDICAL CENTER HOSPITAL,500 WEST 4TH STREET,ODESSA,TX,79761,GENERAL ACUTE CARE,OPEN,402,ECTOR,31.844904172,-102.373613781,GOVERNMENT - DISTRICT/AUTHORITY,402,Y
ODESSA REGIONAL MEDICAL CENTER,520 EAST 6TH STREET,ODESSA,TX,79761,GENERAL ACUTE CARE,OPEN,230,ECTOR,31.8517284660001,-102.364203014,PROPRIETARY,230,Y
THE MEDICAL CENTER OF SOUTHEAST TEXAS,2555 JIMMY JOHNSON BOULEVARD,PORT ARTHUR,TX,77640,GENERAL ACUTE CARE,OPEN,224,JEFFERSON,29.9355020260001,-93.989534534,PROPRIETARY,224,Y
SAN ANGELO COMMUNITY MEDICAL CENTER,3501 KNICKERBOCKER ROAD,SAN ANGELO,TX,76904,GENERAL ACUTE CARE,OPEN,131,TOM GREEN,31.418276543,-100.469814046,PROPRIETARY,131,Y
UNIVERSITY HOSPITAL,4502 MEDICAL DRIVE,SAN ANTONIO,TX,78229,GENERAL ACUTE CARE,OPEN,1034,BEXAR,29.50700957,-98.578337042,GOVERNMENT - DISTRICT/AUTHORITY,1034,Y
GUADALUPE REGIONAL MEDICAL CENTER,1215 EAST COURT STREET,SEGUIN,TX,78155,GENERAL ACUTE CARE,OPEN,125,GUADALUPE,29.567845123,-97.947237032,GOVERNMENT - LOCAL,125,Y
SEYMOUR HOSPITAL,200 STADIUM DRIVE,SEYMOUR,TX,76380,GENERAL ACUTE CARE,OPEN,49,BAYLOR,33.5901706550001,-99.248697455,GOVERNMENT - DISTRICT/AUTHORITY,49,Y
MARY HITCHCOCK MEMORIAL HOSPITAL,ONE MEDICAL CENTER DR,LEBANON,NH,3766,GENERAL ACUTE CARE,OPEN,396,GRAFTON,43.676191551,-72.273334642,NON-PROFIT,396,Y
KNAPP MEDICAL CENTER,1401 EAST 8TH STREET,WESLACO,TX,78596,GENERAL ACUTE CARE,OPEN,226,HIDALGO,26.153228402,-97.9776193709999,NON-PROFIT,226,Y
KELL WEST REGIONAL HOSPITAL,5420 KELL BOULEVARD WEST,WICHITA FALLS,TX,76310,GENERAL ACUTE CARE,OPEN,41,WICHITA,33.872821168,-98.5803042059999,PROPRIETARY,41,Y
MEDICAL CITY DALLAS HOSPITAL,7777 FOREST LANE,DALLAS,TX,75230,GENERAL ACUTE CARE,OPEN,797,DALLAS,32.911932882,-96.7740738699999,PROPRIETARY,797,Y
METHODIST CHARLTON MEDICAL CENTER,3500 WEST WHEATLAND ROAD,DALLAS,TX,75237,GENERAL ACUTE CARE,OPEN,317,DALLAS,32.6457618630001,-96.876848616,NON-PROFIT,317,Y
METHODIST DALLAS MEDICAL CENTER,1441 N. BECKLEY AVENUE,DALLAS,TX,75203,GENERAL ACUTE CARE,OPEN,585,DALLAS,32.7603738120001,-96.826023549,NON-PROFIT,585,Y
CHRISTUS SPOHN HOSPITAL ALICE,2500 EAST MAIN,ALICE,TX,78332,GENERAL ACUTE CARE,OPEN,159,JIM WELLS,27.764016472,-98.041726263,NON-PROFIT,159,Y
CATSKILL REGIONAL MEDICAL CENTER,68 HARRIS-BUSHVILLE RD,HARRIS,NY,12742,GENERAL ACUTE CARE,OPEN,154,SULLIVAN,41.7090607860001,-74.7375243989999,NON-PROFIT,154,Y
FAYETTE COUNTY MEMORIAL HOSPITAL,1430 COLUMBUS AVENUE,WASHINGTON CH,OH,43160,CRITICAL ACCESS,OPEN,25,FAYETTE,39.5478569360001,-83.427094959,GOVERNMENT - LOCAL,25,Y
CRYSTAL CLINIC ORTHOPAEDIC CENTER,444 NORTH MAIN STREET,AKRON,OH,44310,SPECIAL,OPEN,94,SUMMIT,41.096930372,-81.513451264,PROPRIETARY,94,N
WALNUT HILL MEDICAL CENTER,7502 GREENVILLE AVENUE,DALLAS,TX,75231,GENERAL ACUTE CARE,CLOSED,100,DALLAS,32.8837733180001,-96.757964268,PROPRIETARY,100,N
FLAMBEAU HOSPITAL,98 SHERRY AVE,PARK FALLS,WI,54552,GENERAL ACUTE CARE,OPEN,25,PRICE,45.9303153550001,-90.441466465,NON-PROFIT,25,Y
CHI HEALTH ST MARY'S,1301 GRUNDMAN BLVD,NEBRASKA CITY,NE,68410,CRITICAL ACCESS,OPEN,18,OTOE,40.656371361,-95.862483098,NON-PROFIT,18,Y
FORT MEMORIAL HOSPITAL,611 SHERMAN AVE E,FORT ATKINSON,WI,53538,GENERAL ACUTE CARE,OPEN,49,JEFFERSON,42.9311039300001,-88.8279768099999,NON-PROFIT,49,Y
CHICKASAW NATION MEDICAL CENTER,1921 STONECIPHER BLVD.,ADA,OK,74820,CRITICAL ACCESS,OPEN,-999,PONTOTOC,34.731167683,-96.645419767,GOVERNMENT - FEDERAL,-999,Y
GRANT REGIONAL HEALTH CENTER,507 S MONROE ST,LANCASTER,WI,53813,GENERAL ACUTE CARE,OPEN,25,GRANT,42.8439075520001,-90.708863102,NON-PROFIT,25,Y
GUNDERSEN BOSCOBEL AREA HOSPITAL AND CLINICS,205 PARKER ST,BOSCOBEL,WI,53805,CRITICAL ACCESS,OPEN,25,GRANT,43.133184129,-90.7086351569999,NON-PROFIT,25,Y
ROUND ROCK MEDICAL CENTER,2400 ROUND ROCK AVENUE,ROUND ROCK,TX,78681,GENERAL ACUTE CARE,OPEN,173,WILLIAMSON,30.5111077650001,-97.713608397,NON-PROFIT,173,Y
OVERLOOK MEDICAL CENTER,1000 GALLOPING HILL RD,UNION,NJ,7083,GENERAL ACUTE CARE,OPEN,504,UNION,40.6748157380001,-74.2656545249999,NOT AVAILABLE,504,N
UNITED REGIONAL HEALTH CARE SYSTEM,1600 11TH STREET,WICHITA FALLS,TX,76301,GENERAL ACUTE CARE,OPEN,325,WICHITA,33.902430581,-98.5019807909999,NON-PROFIT,325,Y
CHRISTUS SPOHN HOSPITAL BEEVILLE,1500 EAST HOUSTON HIGHWAY,BEEVILLE,TX,78102,GENERAL ACUTE CARE,OPEN,69,BEE,28.4074275360001,-97.731544118,NON-PROFIT,69,Y
BAPTIST MEDICAL CENTER,111 DALLAS STREET,SAN ANTONIO,TX,78205,GENERAL ACUTE CARE,OPEN,623,BEXAR,29.4335889390001,-98.492640783,PROPRIETARY,623,Y
KAISER FOUNDATION HOSPITAL,3288 MOANALUA RD,HONOLULU,HI,96819,GENERAL ACUTE CARE,OPEN,235,HONOLULU,21.3632484720001,-157.89992749,NON-PROFIT,235,Y
KONA COMMUNITY HOSPITAL,79-1019 HAUKAPILA ST,KEALAKEKUA,HI,96750,GENERAL ACUTE CARE,OPEN,94,HAWAII,19.5200309700001,-155.917410035,NON-PROFIT,94,N
KUAKINI MEDICAL CENTER,347 NO KUAKINI ST,HONOLULU,HI,96817,GENERAL ACUTE CARE,OPEN,94,HONOLULU,21.3220399740001,-157.856944052,NON-PROFIT,94,Y
GUNDERSEN LUTHERAN MEDICAL CENTER,1910 SOUTH AVE,LA CROSSE,WI,54601,GENERAL ACUTE CARE,OPEN,325,LA CROSSE,43.7945860240001,-91.246967163,NON-PROFIT,325,Y
PALI MOMI MEDICAL CENTER,98-1079 MOANALUA RD,AIEA,HI,96701,GENERAL ACUTE CARE,OPEN,126,HONOLULU,21.383478638,-157.938695571,NON-PROFIT,126,N
CULLMAN REGIONAL MEDICAL CENTER,1912 ALABAMA HIGHWAY 157,CULLMAN,AL,35058,GENERAL ACUTE CARE,OPEN,145,CULLMAN,34.2013271970001,-86.805729571,NON-PROFIT,145,Y
TEXAS HEALTH HEART & VASCULAR HOSPITAL ARLINGTON,811 WRIGHT STREET,ARLINGTON,TX,76012,SPECIAL,OPEN,48,TARRANT,32.748815316,-97.1156069799999,NON-PROFIT,48,Y
TEXAS ORTHOPEDIC HOSPITAL,7401 SOUTH MAIN STREET,HOUSTON,TX,77030,SPECIAL,OPEN,49,HARRIS,29.7002119370001,-95.409068595,PROPRIETARY,49,N
FLOWERS HOSPITAL,4370 WEST MAIN STREET,DOTHAN,AL,36305,GENERAL ACUTE CARE,OPEN,235,HOUSTON,31.237429987,-85.45704246,PROPRIETARY,235,Y
DEKALB REGIONAL MEDICAL CENTER,200 MEDICAL CENTER DRIVE,FORT PAYNE,AL,35968,GENERAL ACUTE CARE,OPEN,134,DEKALB,34.4412798390001,-85.756218367,PROPRIETARY,134,Y
GRANDVIEW MEDICAL CENTER,3690 GRANDVIEW PARKWAY,BIRMINGHAM,AL,35243,GENERAL ACUTE CARE,OPEN,372,JEFFERSON,33.43293355,-86.717441464,PROPRIETARY,372,Y
WAHIAWA GENERAL HOSPITAL,128 LEHUA ST,WAHIAWA,HI,96786,GENERAL ACUTE CARE,OPEN,160,HONOLULU,21.498901114,-158.025913732,NON-PROFIT,160,N
HILO MEDICAL CENTER,1190 WAIANUENUE AVE,HILO,HI,96720,GENERAL ACUTE CARE,OPEN,276,HAWAII,19.718139702,-155.112841874,GOVERNMENT - STATE,276,Y
SANFORD SHELDON MEDICAL CENTER,118 NORTH 7TH AVENUE,SHELDON,IA,51201,CRITICAL ACCESS,OPEN,25,O'BRIEN,43.1871186160001,-95.84643707,NON-PROFIT,25,Y
MERCY MEDICAL CENTER-CLINTON,1410 NORTH 4TH STREET,CLINTON,IA,52732,GENERAL ACUTE CARE,OPEN,175,CLINTON,41.861501821,-90.189015528,NON-PROFIT,175,Y
NORTHWEST SPECIALTY HOSPITAL,1593 EAST POLSTON AVENUE,POST FALLS,ID,83854,GENERAL ACUTE CARE,OPEN,34,KOOTENAI,47.7154556780001,-116.924388547,PROPRIETARY,34,N
CHI HEALTH LAKESIDE,16901 LAKESIDE HILLS CT,OMAHA,NE,68130,GENERAL ACUTE CARE,OPEN,157,DOUGLAS,41.2377526450001,-96.180395,NON-PROFIT,157,Y
ALHAMBRA HOSPITAL MEDICAL CENTER,100 S RAYMOND AVE,ALHAMBRA,CA,91801,GENERAL ACUTE CARE,OPEN,144,LOS ANGELES,34.090215872,-118.144034807,PROPRIETARY,144,N
UNIVERSITY MEDICAL CENTER NEW ORLEANS,2021 PERDIDO ST.,NEW ORLEANS,LA,70112,GENERAL ACUTE CARE,OPEN,446,ORLEANS,29.960185762,-90.081948944,NOT AVAILABLE,446,Y
KAISER FOUNDATION HOSPITAL - SAN FRANCISCO,2425 GEARY BOULEVARD,SAN FRANCISCO,CA,94115,GENERAL ACUTE CARE,OPEN,247,SAN FRANCISCO,37.7822836060001,-122.443253353,NON-PROFIT,247,N
FRENCH HOSPITAL MEDICAL CENTER,1911 JOHNSON AVENUE,SAN LUIS OBISPO,CA,93401,GENERAL ACUTE CARE,OPEN,103,SAN LUIS OBISPO,35.2779315060001,-120.650641412,NON-PROFIT,103,N
OJAI VALLEY COMMUNITY HOSPITAL,1306 MARICOPA HIGHWAY,OJAI,CA,93023,GENERAL ACUTE CARE,OPEN,25,VENTURA,34.4429151860001,-119.264384312,NON-PROFIT,25,N
SANTA YNEZ VALLEY COTTAGE HOSPITAL,2050 VIBORG ROAD,SOLVANG,CA,93463,GENERAL ACUTE CARE,OPEN,11,SANTA BARBARA,34.6020827880001,-120.126303888,NON-PROFIT,11,N
DAMERON HOSPITAL,525 WEST ACACIA,STOCKTON,CA,95203,GENERAL ACUTE CARE,OPEN,202,SAN JOAQUIN,37.961673262,-121.300982961,NON-PROFIT,202,N
BANNER LASSEN MEDICAL CENTER,1800 SPRING RIDGE DRIVE,SUSANVILLE,CA,96130,GENERAL ACUTE CARE,OPEN,38,LASSEN,40.436883277,-120.627728476,NON-PROFIT,38,Y
KAISER FOUNDATION HOSPITAL - BALDWIN PARK,1011 BALDWIN PARK BLVD.,BALDWIN PARK,CA,91706,GENERAL ACUTE CARE,OPEN,272,LOS ANGELES,34.06534422,-117.985695172,NON-PROFIT,272,N
MADERA COMMUNITY HOSPITAL,1250 EAST ALMOND AVENUE,MADERA,CA,93637,GENERAL ACUTE CARE,OPEN,106,MADERA,36.9438121160001,-120.0446582,NON-PROFIT,106,N
WATSONVILLE COMMUNITY HOSPITAL,75 NIELSON STREET,WATSONVILLE,CA,95076,GENERAL ACUTE CARE,OPEN,106,SANTA CRUZ,36.927130666,-121.792911066,NON-PROFIT,106,N
MILLS-PENINSULA MEDICAL CENTER,1501 TROUSDALE DRIVE,BURLINGAME,CA,94010,GENERAL ACUTE CARE,OPEN,241,SAN MATEO,37.592512749,-122.382323604,NON-PROFIT,241,Y
SEQUOIA HOSPITAL,170 ALAMEDA DE LAS PULGAS,REDWOOD CITY,CA,94062,GENERAL ACUTE CARE,OPEN,208,SAN MATEO,37.4793650190001,-122.254884344,NON-PROFIT,208,N
SETON MEDICAL CENTER,1900 SULLIVAN AVENUE,DALY CITY,CA,94015,GENERAL ACUTE CARE,OPEN,357,SAN MATEO,37.679885041,-122.474237571,NON-PROFIT,357,N
NOVATO COMMUNITY HOSPITAL,180 ROLAND WAY,NOVATO,CA,94945,GENERAL ACUTE CARE,OPEN,47,MARIN,38.0992549150001,-122.56002452,NON-PROFIT,47,N
KAISER FOUNDATION HOSPITAL - WALNUT CREEK,1425 SOUTH MAIN STREET,WALNUT CREEK,CA,94596,GENERAL ACUTE CARE,OPEN,233,CONTRA COSTA,37.891346362,-122.058839307,NON-PROFIT,233,N
KAISER FOUNDATION HOSPITAL - ANTIOCH,4501 SAND CREEK ROAD,ANTIOCH,CA,94531,GENERAL ACUTE CARE,OPEN,150,CONTRA COSTA,37.950991125,-121.775138218,NON-PROFIT,150,Y
BAKERSFIELD MEMORIAL HOSPITAL,420 - 34TH STREET,BAKERSFIELD,CA,93301,GENERAL ACUTE CARE,OPEN,426,KERN,35.3913423340001,-119.006873306,NON-PROFIT,426,Y
MERCY GENERAL HOSPITAL,4001 J STREET,SACRAMENTO,CA,95819,GENERAL ACUTE CARE,OPEN,419,SACRAMENTO,38.5700612750001,-121.452468425,NON-PROFIT,419,N
HOAG MEMORIAL HOSPITAL PRESBYTERIAN,1 HOAG DR,NEWPORT BEACH,CA,92663,GENERAL ACUTE CARE,OPEN,443,ORANGE,33.6244711150001,-117.929302005,NON-PROFIT,443,Y
EMORY JOHNS CREEK HOSPITAL,6325 HOSPITAL PARKWAY,JOHNS CREEK,GA,30097,GENERAL ACUTE CARE,OPEN,110,FULTON,34.06667514,-84.176628082,NON-PROFIT,110,Y
WEST CARROLL MEMORIAL HOSPITAL,706 ROSS ST,OAK GROVE,LA,71263,GENERAL ACUTE CARE,OPEN,21,WEST CARROLL,32.8682987380001,-91.382381986,NON-PROFIT,21,N
JENNINGS AMERICAN LEGION HOSPITAL,1634 ELTON RD,JENNINGS,LA,70546,GENERAL ACUTE CARE,OPEN,60,JEFFERSON DAVIS,30.2394413480001,-92.662935136,NON-PROFIT,60,N
SACRED HEART HOSPITAL,900 W CLAIREMONT AVE,EAU CLAIRE,WI,54701,GENERAL ACUTE CARE,OPEN,344,EAU CLAIRE,44.7944657740001,-91.510666756,NON-PROFIT,344,Y
UPLAND HILLS HEALTH,800 COMPASSION WAY,DODGEVILLE,WI,53533,GENERAL ACUTE CARE,OPEN,25,IOWA,42.9513239610001,-90.129462769,NON-PROFIT,25,Y
RICHLAND HOSPITAL,333 E SECOND ST,RICHLAND CENTER,WI,53581,GENERAL ACUTE CARE,OPEN,25,RICHLAND,43.338702283,-90.382274339,NON-PROFIT,25,Y
MONTCLAIR HOSPITAL MEDICAL CENTER,5000 SAN BERNARDINO STREET,MONTCLAIR,CA,91763,GENERAL ACUTE CARE,OPEN,102,SAN BERNARDINO,34.078757766,-117.695976573,NON-PROFIT,102,N
USC VERDUGO HILLS HOSPITAL,1812 VERDUGO BOULEVARD,GLENDALE,CA,91208,GENERAL ACUTE CARE,OPEN,158,LOS ANGELES,34.2048888570001,-118.215980012,NON-PROFIT,158,Y
DEKALB MEDICAL CENTER,2701 N DECATUR ROAD,DECATUR,GA,30033,GENERAL ACUTE CARE,OPEN,451,DEKALB,33.7910891350001,-84.2829100989999,NON-PROFIT,451,N
MEDSTAR WASHINGTON HOSPITAL CENTER,110 IRVING STREET NW,WASHINGTON,DC,20010,GENERAL ACUTE CARE,OPEN,926,DISTRICT OF COLUMBIA,38.9296519440001,-77.015648297,NON-PROFIT,926,Y
HAYWARD AREA MEMORIAL HOSPITAL,11040 N STATE RD 77,HAYWARD,WI,54843,GENERAL ACUTE CARE,OPEN,25,SAWYER,46.0347967970001,-91.485746875,NON-PROFIT,25,Y
BAYFRONT HEALTH BROOKSVILLE,17240 CORTEZ BLVD,BROOKSVILLE,FL,34601,GENERAL ACUTE CARE,OPEN,120,HERNANDO,28.5388338240001,-82.443491598,PROPRIETARY,120,Y
LARKIN COMMUNITY HOSPITAL PALM SPRINGS CAMPUS,1475 W 49TH ST,HIALEAH,FL,33012,GENERAL ACUTE CARE,OPEN,247,MIAMI-DADE,25.868542426,-80.312269678,PROPRIETARY,247,N
UF HEALTH JACKSONVILLE,655 W 8TH ST,JACKSONVILLE,FL,32209,GENERAL ACUTE CARE,OPEN,603,DUVAL,30.3485052390001,-81.664274824,NON-PROFIT,603,Y
AVERA HOLY FAMILY HOSPITAL,826 NORTH 8TH STREET,ESTHERVILLE,IA,51334,CRITICAL ACCESS,OPEN,25,EMMET,43.409986668,-94.8336579159999,NON-PROFIT,25,Y
BAYFRONT HEALTH PUNTA GORDA,809 E MARION AVE,PUNTA GORDA,FL,33950,GENERAL ACUTE CARE,OPEN,280,CHARLOTTE,26.9409464170001,-82.040277401,PROPRIETARY,280,Y
FORT MADISON COMMUNITY HOSPITAL,5445 AVENUE O,FORT MADISON,IA,52627,GENERAL ACUTE CARE,OPEN,50,LEE,40.625806771,-91.384313374,NON-PROFIT,50,Y
PELLA REGIONAL HEALTH CENTER,404 JEFFERSON STREET,PELLA,IA,50219,CRITICAL ACCESS,OPEN,25,MARION,41.4130032400001,-92.910922564,NON-PROFIT,25,Y
ST LUKE'S ELMORE MEDICAL CENTER,895 NORTH 6TH EAST,MOUNTAIN HOME,ID,83647,CRITICAL ACCESS,OPEN,25,ELMORE,43.13889106,-115.693596287,NON-PROFIT,25,Y
SUSAN B ALLEN MEMORIAL HOSPITAL,720 W CENTRAL ST,EL DORADO,KS,67042,GENERAL ACUTE CARE,OPEN,68,BUTLER,37.8182842100001,-96.858900297,NON-PROFIT,68,N
ASHLEY COUNTY MEDICAL CENTER,1015 UNITY ROAD,CROSSETT,AR,71635,CRITICAL ACCESS,OPEN,33,ASHLEY,33.138454159,-91.9387990499999,NON-PROFIT,33,Y
GREAT RIVER MEDICAL CENTER,1520 NORTH DIVISION STREET,BLYTHEVILLE,AR,72315,GENERAL ACUTE CARE,OPEN,168,MISSISSIPPI,35.9430199330001,-89.917311252,GOVERNMENT - LOCAL,168,Y
NATIONAL PARK MEDICAL CENTER,1910 MALVERN AVENUE,HOT SPRINGS,AR,71901,GENERAL ACUTE CARE,OPEN,166,GARLAND,34.486105111,-93.0353852709999,PROPRIETARY,166,Y
HOWARD YOUNG MEDICAL CTR,240 MAPLE ST,WOODRUFF,WI,54568,GENERAL ACUTE CARE,OPEN,99,ONEIDA,45.8935042740001,-89.702538519,NON-PROFIT,99,Y
HSHS ST CLARE MEMORIAL HOSPITAL,855 S MAIN ST,OCONTO FALLS,WI,54154,CRITICAL ACCESS,OPEN,25,OCONTO,44.865334546,-88.1276934429999,NON-PROFIT,25,N
NORTHWEST MEDICAL CENTER,6200 N LACHOLLA BLVD,TUCSON,AZ,85741,GENERAL ACUTE CARE,OPEN,295,PIMA,32.3200039990001,-111.010122721,PROPRIETARY,295,Y
HARDIN MEMORIAL HOSPITAL,913 N DIXIE AVENUE,ELIZABETHTOWN,KY,42701,GENERAL ACUTE CARE,OPEN,285,HARDIN,37.7099441,-85.876296328,GOVERNMENT - LOCAL,285,Y
ARKANSAS VALLEY REGIONAL MEDICAL CENTER,1100 CARSON AVENUE,LA JUNTA,CO,81050,GENERAL ACUTE CARE,OPEN,78,OTERO,37.97806683,-103.549578789,NON-PROFIT,78,Y
PROMEDICA BIXBY HOSPITAL,818 RIVERSIDE AVENUE,ADRIAN,MI,49221,GENERAL ACUTE CARE,OPEN,88,LENAWEE,41.9136643350001,-84.049104023,NON-PROFIT,88,Y
NORTH OTTAWA COMMUNITY HEALTH SYSTEM,1309 SHELDON RD,GRAND HAVEN,MI,49417,GENERAL ACUTE CARE,OPEN,81,OTTAWA,43.0507726210001,-86.228829176,NON-PROFIT,81,Y
"LAKELAND HOSPITAL, ST JOSEPH",1234 NAPIER AVENUE,ST JOSEPH,MI,49085,GENERAL ACUTE CARE,OPEN,215,BERRIEN,42.0882541670001,-86.478771466,NON-PROFIT,215,Y
BRONSON BATTLE CREEK HOSPITAL,300 NORTH AVENUE,BATTLE CREEK,MI,49017,GENERAL ACUTE CARE,OPEN,189,CALHOUN,42.3310857540001,-85.177947492,NON-PROFIT,189,N
MEMORIAL HEALTHCARE,826 WEST KING STREET,OWOSSO,MI,48867,GENERAL ACUTE CARE,OPEN,107,SHIAWASSEE,43.006052056,-84.18167719,NON-PROFIT,107,Y
HILLS & DALES GENERAL HOSPITAL,4675 HILL STREET,CASS CITY,MI,48726,GENERAL ACUTE CARE,OPEN,25,TUSCOLA,43.604180424,-83.182603925,NON-PROFIT,25,Y
ST JOSEPH MERCY HOSPITAL,5301 E HURON RIVER DR,ANN ARBOR,MI,48106,GENERAL ACUTE CARE,OPEN,513,WASHTENAW,42.2651880330001,-83.6543299529999,NON-PROFIT,513,Y
ST JOSEPH MERCY CHELSEA,775 S MAIN ST,CHELSEA,MI,48118,GENERAL ACUTE CARE,OPEN,102,WASHTENAW,42.310261343,-84.015833589,NON-PROFIT,102,Y
MCLAREN GREATER LANSING,401 W GREENLAWN AVE,LANSING,MI,48910,GENERAL ACUTE CARE,OPEN,322,INGHAM,42.7037629610001,-84.554988813,NON-PROFIT,322,N
SINAI-GRACE HOSPITAL,6071 W OUTER DRIVE,DETROIT,MI,48235,GENERAL ACUTE CARE,OPEN,383,WAYNE,42.4191182610001,-83.182024871,NON-PROFIT,383,Y
HARPER UNIVERSITY HOSPITAL,3990 JOHN R STREET,DETROIT,MI,48201,GENERAL ACUTE CARE,OPEN,470,WAYNE,42.35178008,-83.0563912759999,PROPRIETARY,470,N
METRO HEALTH HOSPITAL,"5900 BYRON CENTER AVENUE, SW",WYOMING,MI,49519,GENERAL ACUTE CARE,OPEN,208,KENT,42.8578175850001,-85.71770279,NON-PROFIT,208,N
BELL HOSPITAL,901 LAKESHORE DRIVE,ISHPEMING,MI,49849,GENERAL ACUTE CARE,OPEN,25,MARQUETTE,46.504928599,-87.6848114759999,NON-PROFIT,25,N
LAKESIDE MEDICAL CENTER,129 EAST SIXTH AVENUE,PINE CITY,MN,55063,GENERAL ACUTE CARE,CLOSED,10,PINE,45.8237570840001,-92.964375309,PROPRIETARY,10,N
MERCY HOSPITAL SPRINGFIELD,1235 EAST CHEROKEE STREET,SPRINGFIELD,MO,65804,GENERAL ACUTE CARE,OPEN,866,GREENE,37.1789823730001,-93.275275993,NON-PROFIT,866,Y
GOLDEN VALLEY MEMORIAL HOSPITAL,1600 NORTH SECOND STREET,CLINTON,MO,64735,GENERAL ACUTE CARE,OPEN,56,HENRY,38.3896789250001,-93.768801003,GOVERNMENT - DISTRICT/AUTHORITY,56,Y
SWEDISH COVENANT HOSPITAL,5145 N CALIFORNIA AVE,CHICAGO,IL,60625,GENERAL ACUTE CARE,OPEN,279,COOK,41.975351554,-87.69946587,NON-PROFIT,279,N
BAPTIST MEDICAL CENTER YAZOO,823 GRAND AVENUE,YAZOO CITY,MS,39194,CRITICAL ACCESS,OPEN,25,YAZOO,32.8588946990001,-90.404259412,NON-PROFIT,25,N
LADD MEMORIAL HOSPITAL,2600 65TH AVENUE,OSCEOLA,WI,54020,CRITICAL ACCESS,OPEN,23,POLK,45.3018607930001,-92.700607282,NOT AVAILABLE,23,Y
GREENWOOD LEFLORE HOSPITAL,1401 RIVER ROAD,GREENWOOD,MS,38935,GENERAL ACUTE CARE,OPEN,208,LEFLORE,33.517809196,-90.1991596249999,GOVERNMENT - LOCAL,208,Y
NOVANT HEALTH PRESBYTERIAN MEDICAL CENTER,200 HAWTHORNE LANE,CHARLOTTE,NC,28233,GENERAL ACUTE CARE,OPEN,661,MECKLENBURG,35.2118381920001,-80.8241644409999,NON-PROFIT,661,Y
VIDANT BEAUFORT HOSPITAL,628 EAST TWELFTH ST,WASHINGTON,NC,27889,GENERAL ACUTE CARE,OPEN,142,BEAUFORT,35.5492219080001,-77.037838049,NON-PROFIT,142,N
VIDANT EDGECOMBE HOSPITAL,111 HOSPITAL DR,TARBORO,NC,27886,GENERAL ACUTE CARE,OPEN,117,EDGECOMBE,35.9210314060001,-77.555915619,NON-PROFIT,117,Y
CARTERET GENERAL HOSPITAL,3500 ARENDELL STREET,MOREHEAD CITY,NC,28557,GENERAL ACUTE CARE,OPEN,135,CARTERET,34.7262094980001,-76.755041171,GOVERNMENT - LOCAL,135,N
FRYE REGIONAL MEDICAL CENTER,420 NORTH CENTER ST,HICKORY,NC,28601,GENERAL ACUTE CARE,OPEN,355,CATAWBA,35.737346474,-81.337270844,PROPRIETARY,355,N
RUTHERFORD REGIONAL MEDICAL CENTER,288 SOUTH RIDGECREST AVE.,RUTHERFORDTON,NC,28139,GENERAL ACUTE CARE,OPEN,143,RUTHERFORD,35.36235121,-81.96559595,NON-PROFIT,143,Y
SAMPSON REGIONAL MEDICAL CENTER,607 BEAMAN STREET,CLINTON,NC,28329,GENERAL ACUTE CARE,OPEN,146,SAMPSON,35.0071833010001,-78.324487667,GOVERNMENT - LOCAL,146,Y
CALDWELL MEMORIAL HOSPITAL,321 MULBERRY STREET SW,LENOIR,NC,28645,GENERAL ACUTE CARE,OPEN,110,CALDWELL,35.910606527,-81.535161385,NON-PROFIT,110,Y
LEXINGTON MEDICAL CENTER,250 HOSPITAL DRIVE,LEXINGTON,NC,27293,GENERAL ACUTE CARE,OPEN,94,DAVIDSON,35.8061501510001,-80.2867354159999,NON-PROFIT,94,Y
ST LUKE'S HOSPITAL,702 1ST ST SW,CROSBY,ND,58730,CRITICAL ACCESS,OPEN,15,DIVIDE,48.906692961,-103.299034692,NON-PROFIT,15,Y
RAULERSON HOSPITAL,1796 HWY 441 NORTH,OKEECHOBEE,FL,34972,GENERAL ACUTE CARE,OPEN,100,OKEECHOBEE,27.2602680250001,-80.8286949769999,PROPRIETARY,100,Y
ADAMS COUNTY REGIONAL MEDICAL CENTER,230 MEDICAL CENTER DRIVE,SEAMAN,OH,45679,CRITICAL ACCESS,OPEN,25,ADAMS,38.93411952,-83.584596968,GOVERNMENT - LOCAL,25,Y
OSCEOLA REGIONAL MEDICAL CENTER,700 W OAK ST,KISSIMMEE,FL,34741,GENERAL ACUTE CARE,OPEN,396,OSCEOLA,28.29968039,-81.40919031,PROPRIETARY,396,Y
MEASE DUNEDIN HOSPITAL,601 MAIN ST,DUNEDIN,FL,34698,GENERAL ACUTE CARE,OPEN,120,PINELLAS,28.0135453180001,-82.78322148,NON-PROFIT,120,Y
PALMS OF PASADENA HOSPITAL,1501 PASADENA AVE S,SAINT PETERSBURG,FL,33707,GENERAL ACUTE CARE,OPEN,307,PINELLAS,27.7530805050001,-82.740141461,PROPRIETARY,307,N
MEMORIAL HOSPITAL OF TAMPA,2901 SWANN AVE,TAMPA,FL,33609,GENERAL ACUTE CARE,OPEN,139,HILLSBOROUGH,27.9379217800001,-82.4899045459999,PROPRIETARY,139,N
TAMPA GENERAL HOSPITAL,1 TAMPA GENERAL CIR,TAMPA,FL,33606,GENERAL ACUTE CARE,OPEN,1010,HILLSBOROUGH,27.9379627000001,-82.459155316,NON-PROFIT,1010,Y
HENDRY REGIONAL MEDICAL CENTER,524 W SAGAMORE AVE,CLEWISTON,FL,33440,GENERAL ACUTE CARE,OPEN,25,HENDRY,26.7526813980001,-80.941265554,GOVERNMENT - DISTRICT/AUTHORITY,25,Y
TAMPA COMMUNITY HOSPITAL,6001 WEBB RD,TAMPA,FL,33615,GENERAL ACUTE CARE,OPEN,201,HILLSBOROUGH,28.0023845740001,-82.5741747549999,PROPRIETARY,201,Y
SARASOTA MEMORIAL HOSPITAL,1700 S TAMIAMI TRL,SARASOTA,FL,34239,GENERAL ACUTE CARE,OPEN,829,SARASOTA,27.317850784,-82.5310823419999,GOVERNMENT - DISTRICT/AUTHORITY,829,Y
CENTRAL FLORIDA REGIONAL HOSPITAL,1401 W SEMINOLE BLVD,SANFORD,FL,32771,GENERAL ACUTE CARE,OPEN,221,SEMINOLE,28.814536167,-81.28363207,PROPRIETARY,221,Y
LEE MEMORIAL HOSPITAL,2776 CLEVELAND AVE,FORT MYERS,FL,33901,GENERAL ACUTE CARE,OPEN,835,LEE,26.6283919100001,-81.8740243029999,GOVERNMENT - DISTRICT/AUTHORITY,835,Y
HALIFAX HEALTH MEDICAL CENTER,303 N CLYDE MORRIS BLVD,DAYTONA BEACH,FL,32114,GENERAL ACUTE CARE,OPEN,558,VOLUSIA,29.202384954,-81.054827885,GOVERNMENT - DISTRICT/AUTHORITY,558,Y
REGIONAL MEDICAL CENTER BAYONET POINT,14000 FIVAY RD,HUDSON,FL,34667,GENERAL ACUTE CARE,OPEN,290,PASCO,28.3619604850001,-82.688255924,PROPRIETARY,290,Y
LAKELAND REGIONAL MEDICAL CENTER,1324 LAKELAND HILLS BLVD,LAKELAND,FL,33805,GENERAL ACUTE CARE,OPEN,849,POLK,28.060381948,-81.954076325,NON-PROFIT,849,Y
WINTER HAVEN HOSPITAL,200 AVE F NE,WINTER HAVEN,FL,33881,GENERAL ACUTE CARE,OPEN,458,POLK,28.0284833370001,-81.725611687,NON-PROFIT,458,Y
HOLMES REGIONAL MEDICAL CENTER,1350 S HICKORY ST,MELBOURNE,FL,32901,GENERAL ACUTE CARE,OPEN,514,BREVARD,28.087198017,-80.614437596,NON-PROFIT,514,Y
PARRISH MEDICAL CENTER,951 N WASHINGTON AVE,TITUSVILLE,FL,32796,GENERAL ACUTE CARE,OPEN,163,BREVARD,28.63074177,-80.824201472,GOVERNMENT - DISTRICT/AUTHORITY,163,Y
BROWARD HEALTH CORAL SPRINGS,3000 CORAL HILLS DR,CORAL SPRINGS,FL,33065,GENERAL ACUTE CARE,OPEN,200,BROWARD,26.268752781,-80.255656216,GOVERNMENT - DISTRICT/AUTHORITY,200,N
BROWARD HEALTH NORTH,201 E SAMPLE RD,POMPANO BEACH,FL,33064,GENERAL ACUTE CARE,OPEN,409,BROWARD,26.2770037390001,-80.120963778,GOVERNMENT - DISTRICT/AUTHORITY,409,Y
CLEVELAND CLINIC HOSPITAL,3100 WESTON RD,WESTON,FL,33331,GENERAL ACUTE CARE,OPEN,155,BROWARD,26.0819221680001,-80.364894753,NON-PROFIT,155,Y
MEMORIAL HOSPITAL WEST,703 N FLAMINGO RD,PEMBROKE PINES,FL,33028,GENERAL ACUTE CARE,OPEN,446,BROWARD,26.0130154080001,-80.310800362,GOVERNMENT - DISTRICT/AUTHORITY,446,Y
MEMORIAL REGIONAL HOSPITAL,3501 JOHNSON ST,HOLLYWOOD,FL,33021,GENERAL ACUTE CARE,OPEN,797,BROWARD,26.018941806,-80.1800219899999,GOVERNMENT - DISTRICT/AUTHORITY,797,Y
CITRUS MEMORIAL HOSPITAL,502 HIGHLAND BLVD,INVERNESS,FL,34452,GENERAL ACUTE CARE,OPEN,204,CITRUS,28.834034386,-82.335795713,NON-PROFIT,204,Y
LOWER KEYS MEDICAL CENTER,5900 COLLEGE RD,KEY WEST,FL,33040,GENERAL ACUTE CARE,OPEN,49,MONROE,24.580824948,-81.742580275,PROPRIETARY,49,Y
