NAME,ADDRESS,CITY,STATE,ZIP,TYPE,STATUS,POPULATION,COUNTY,LATITUDE,LONGITUDE,OWNER,BEDS,HELIPAD
LOS ROBLES HOSPITAL & MEDICAL CENTER - EAST CAMPUS,150 VIA MERIDA,WESTLAKE VILAGE,CA,91362,GENERAL ACUTE CARE,OPEN,40,VENTURA,34.1549388720001,-118.815736391,PROPRIETARY,40,N
EAST LOS ANGELES DOCTORS HOSPITAL,4060 WHITTIER BOULEVARD,LOS ANGELES,CA,90023,GENERAL ACUTE CARE,OPEN,127,LOS ANGELES,34.023647302,-118.184164805,PROPRIETARY,127,N
SOUTHERN CALIFORNIA HOSPITAL AT HOLLYWOOD,6245 DE LONGPRE AVENUE,HOLLYWOOD,CA,90028,GENERAL ACUTE CARE,OPEN,100,LOS ANGELES,34.0963913570001,-118.325234871,PROPRIETARY,100,N
KINDRED HOSPITAL BALDWIN PARK,14148 FRANCISQUITO AVENUE,BALDWIN PARK,CA,91706,GENERAL ACUTE CARE,OPEN,95,LOS ANGELES,34.063038932,-117.967437788,PROPRIETARY,95,N
LAKEWOOD REGIONAL MEDICAL CENTER,3700 EAST SOUTH STREET,LAKEWOOD,CA,90712,GENERAL ACUTE CARE,OPEN,172,LOS ANGELES,33.8597066200001,-118.148402965,PROPRIETARY,172,N
MONROVIA MEMORIAL HOSPITAL,323 SOUTH HELIOTROPE AVENUE,MONROVIA,CA,91016,GENERAL ACUTE CARE,OPEN,49,LOS ANGELES,34.1487586590001,-117.992667657,PROPRIETARY,49,N
MONTEREY PARK HOSPITAL,900 SOUTH ATLANTIC BOULEVARD,MONTEREY PARK,CA,91754,GENERAL ACUTE CARE,OPEN,101,LOS ANGELES,34.0494660590001,-118.138262231,PROPRIETARY,101,N
STAR VIEW ADOLESCENT - P H F,4025 WEST 226 STREET,TORRANCE,CA,90505,PSYCHIATRIC,OPEN,16,LOS ANGELES,33.823914464,-118.356096947,PROPRIETARY,16,N
CORONA REGIONAL MEDICAL CENTER-MAGNOLIA,730 MAGNOLIA AVENUE,CORONA,CA,92879,GENERAL ACUTE CARE,OPEN,78,RIVERSIDE,33.8580833070001,-117.553858035,PROPRIETARY,78,N
MODOC MEDICAL CENTER,228 W MCDOWELL AVE,ALTURAS,CA,96101,GENERAL ACUTE CARE,OPEN,87,MODOC,41.4800562550001,-120.545743987,GOVERNMENT - LOCAL,87,Y
SALINAS VALLEY MEMORIAL HOSPITAL,450 EAST ROMIE LANE,SALINAS,CA,93901,GENERAL ACUTE CARE,OPEN,269,MONTEREY,36.659030456,-121.645983804,GOVERNMENT - DISTRICT/AUTHORITY,269,N
HEALTHBRIDGE CHILDREN'S HOSPITAL-ORANGE,393 S. TUSTIN STREET,ORANGE,CA,92866,CHILDREN,OPEN,27,ORANGE,33.7827271730001,-117.833891865,PROPRIETARY,27,N
ENCOMPASS HEALTH REHABILITATION HOSPITAL OF TUSTIN,14851 YORBA STREET,TUSTIN,CA,92780,GENERAL ACUTE CARE,OPEN,48,ORANGE,33.7474607400001,-117.831055631,PROPRIETARY,48,N
KINDRED HOSPITAL BREA,875 NORTH BREA BOULEVARD,BREA,CA,92821,GENERAL ACUTE CARE,OPEN,86,ORANGE,33.934495886,-117.893948792,PROPRIETARY,86,N
KINDRED HOSPITAL WESTMINSTER,200 HOSPITAL CIRCLE,WESTMINSTER,CA,92683,GENERAL ACUTE CARE,OPEN,109,ORANGE,33.7635332090001,-117.995255963,PROPRIETARY,109,N
KAWEAH DELTA MENTAL HEALTH HOSPITAL,1100 SO. AKERS STREET,VISALIA,CA,93277,GENERAL ACUTE CARE,OPEN,63,TULARE,36.320843946,-119.348234528,GOVERNMENT - DISTRICT/AUTHORITY,63,N
CHARLTON MEMORIAL HOSPITAL,2449 THIRD STREET,FOLKSTON,GA,31537,GENERAL ACUTE CARE,CLOSED,-999,CHARLTON,30.845275348,-82.005057392,GOVERNMENT - DISTRICT/AUTHORITY,-999,Y
DAUTERIVE HOSPITAL,600 N LEWIS AVE.,NEW IBERIA,LA,70563,GENERAL ACUTE CARE,OPEN,103,IBERIA,30.006906977,-91.794523853,PROPRIETARY,103,Y
CROCKETT MEDICAL CENTER,1100 EAST LOOP 304,CROCKETT,TX,75835,GENERAL ACUTE CARE,OPEN,25,HOUSTON,31.32360364,-95.4388993059999,NON-PROFIT,25,Y
CENTRAL LOUISIANA STATE HOSPITAL,242 W SHAMROCK AVE,PINEVILLE,LA,71360,PSYCHIATRIC,OPEN,128,RAPIDES,31.3273789420001,-92.4401351129999,GOVERNMENT - STATE,128,N
REEVES MEMORIAL MEDICAL CENTER,409 1ST ST,BERNICE,LA,71222,GENERAL ACUTE CARE,OPEN,11,UNION,32.8239916700001,-92.656648681,GOVERNMENT - DISTRICT/AUTHORITY,11,Y
SERENITY SPRINGS SPECIALTY HOSPITAL,309 N MAIN ST,FARMERVILLE,LA,71241,PSYCHIATRIC,OPEN,18,UNION,32.776127934,-92.4056258479999,PROPRIETARY,18,N
RIVERBRIDGE SPECIALTY HOSPITAL,209 FRONT ST.,VIDALIA,LA,71373,LONG TERM CARE,OPEN,40,CONCORDIA,31.5611748630001,-91.4260669829999,PROPRIETARY,40,N
CITIZENS MEDICAL CENTER,7939 HIGHWAY 165,COLUMBIA,LA,71418,GENERAL ACUTE CARE,OPEN,40,CALDWELL,32.0773298010001,-92.094448206,GOVERNMENT - DISTRICT/AUTHORITY,40,Y
BROWN MEMORIAL CONVALESCENT CENTER,545 COOK STREET,ROYSTON,GA,30662,LONG TERM CARE,CLOSED,144,FRANKLIN,34.2832503650001,-83.118972365,PROPRIETARY,144,N
COLLEGE MEDICAL CENTER,2776 PACIFIC AVENUE,LONG BEACH,CA,90806,GENERAL ACUTE CARE,OPEN,121,LOS ANGELES,33.8070928700001,-118.193389929,PROPRIETARY,121,N
KAISER FOUNDATION HOSPITAL - SAN LEANDRO,2500 MERCED STREET,SAN LEANDRO,CA,94577,GENERAL ACUTE CARE,OPEN,216,ALAMEDA,37.706406198,-122.164654518,NOT AVAILABLE,216,N
KINDRED HOSPITAL PARAMOUNT,16453 SOUTH COLORADO AVENUE,PARAMOUNT,CA,90723,LONG TERM CARE,OPEN,177,LOS ANGELES,33.8846318610001,-118.162267066,PROPRIETARY,177,N
DEPARTMENT OF STATE HOSPITAL-METROPOLITAN,11401 BLOOMFIELD AVENUE,NORWALK,CA,90650,PSYCHIATRIC,OPEN,1265,LOS ANGELES,33.928031349,-118.067989672,GOVERNMENT - STATE,1265,N
PINCKNEYVILLE COMMUNITY HOSPITAL,5383 STATE ROUTE 154,PINCKNEYVILLE,IL,62274,CRITICAL ACCESS,OPEN,17,PERRY,38.084846,-89.3491079999999,GOVERNMENT - LOCAL,17,Y
ST JOSEPH'S HOSPITAL SAVANNAH,11705 MERCY BOULEVARD,SAVANNAH,GA,31419,GENERAL ACUTE CARE,OPEN,294,CHATHAM,31.985430321,-81.154556369,NON-PROFIT,294,Y
UPSON REGIONAL MEDICAL CENTER,801 W GORDON STREET,THOMASTON,GA,30286,GENERAL ACUTE CARE,OPEN,115,UPSON,32.886297701,-84.3365069879999,NOT AVAILABLE,115,N
PHOEBE SUMTER MEDICAL CENTER,126 HIGHWAY 280 W,AMERICUS,GA,31719,GENERAL ACUTE CARE,OPEN,76,SUMTER,32.0669623380001,-84.2560501999999,NOT AVAILABLE,76,Y
ROOSEVELT WARM SPRINGS LTAC HOSPITAL,6135 ROOSEVELT HIGHWAY,WARM SPRINGS,GA,31830,LONG TERM CARE,OPEN,32,MERIWETHER,32.887980741,-84.6923449,NOT AVAILABLE,32,N
SOUTHEASTERN REGIONAL MEDICAL CENTER,600 CELEBRATE LIFE PKWY,NEWNAN,GA,30265,GENERAL ACUTE CARE,OPEN,50,COWETA,33.3848346460001,-84.757746692,PROPRIETARY,50,N
DOCTORS CENTER HOSPITAL SANFERNANDO DE CAROLINA,"CALLE FERNANDEZ JUNCOS, EDIFICIO JESUS T. PINEIRO",CAROLINA,PR,984,GENERAL ACUTE CARE,OPEN,988,METRO,18.3804430000001,-65.95579,NOT AVAILABLE,988,N
BROWN COUNTY COMMUNITY TREATMENT CTR,3150 GERSHWIN DRIVE,GREEN BAY,WI,54311,PSYCHIATRIC,OPEN,16,BROWN,44.522712261,-87.924827084,GOVERNMENT - LOCAL,16,N
WHEATON FRANCISCAN WI HEART SPINE AND ORTHO,10000 WEST BLUEMOUND ROAD,WAUWATOSA,WI,53226,GENERAL ACUTE CARE,CLOSED,40,MILWAUKEE,43.0358121520001,-88.037265823,NOT AVAILABLE,40,N
HOSPITAL PSIQUIATRICO DE NINOS Y ADOLESCENTES,"100 AVE LAUREL 100, URB. SANTA JUANITA",BAYAMON,PR,956,PSYCHIATRIC,OPEN,-999,BAYAMON,18.3676556610001,-66.154391259,NOT AVAILABLE,-999,N
COMPASS BEHAVIORAL CENTER OF ALEXANDRIA,6410 MASONIC DRIVE,ALEXANDRIA,LA,71301,GENERAL ACUTE CARE,OPEN,18,RAPIDES,31.2521915580001,-92.481987814,NOT AVAILABLE,18,N
OCSHNER ST. ANNE GENERAL HOSPITAL,4608 HIGHWAY 1,RACELAND,LA,70394,GENERAL ACUTE CARE,OPEN,38,LAFOURCHE,29.7026714240001,-90.565253898,NOT AVAILABLE,38,Y
FELICIANA FORENSIC FACILITY,4502 HWY 951,JACKSON,LA,70748,GENERAL ACUTE CARE,OPEN,-999,EAST FELICIANA,30.832635688,-91.210660488,GOVERNMENT - STATE,-999,N
UNITED MEDICAL HEALTHWEST-NEW ORLEANS,3201 WALL BOULEVARD,GRETNA,LA,70056,REHABILITATION,OPEN,14,JEFFERSON,29.865979474,-90.03069185,PROPRIETARY,14,N
RIPON MEDICAL CENTER,845 PARKSIDE ST,RIPON,WI,54971,CRITICAL ACCESS,OPEN,18,FOND DU LAC,43.8343760920001,-88.817751529,NOT AVAILABLE,18,N
VA MEDICAL CENTER - PROVIDENCE,830 CHALKSTONE AVE,PROVIDENCE,RI,2908,GENERAL ACUTE CARE,OPEN,-999,PROVIDENCE,41.8321390840001,-71.4331495449999,GOVERNMENT - FEDERAL,-999,N
TOMAH VA MEDICAL CENTER,500 E VETERANS ST,TOMAH,WI,54660,MILITARY,OPEN,-999,MONROE,44.00308068,-90.493319014,GOVERNMENT - FEDERAL,-999,Y
ASCENSION GOOD SAMARITAN HOSPITAL,601 S CENTER AVE,MERRILL,WI,54452,GENERAL ACUTE CARE,OPEN,25,LINCOLN,45.1756325370001,-89.681831276,NON-PROFIT,25,Y
RESTPADD PSYCHIATRIC HEALTH FACILITY,2750 EUREKA WAY,REDDING,CA,96001,PSYCHIATRIC,OPEN,16,SHASTA,40.586595392,-122.411974107,PROPRIETARY,16,N
THE CHAMPION CENTER,303 SOUTH C STREET,LOMPOC,CA,93436,REHABILITATION,CLOSED,34,SANTA BARBARA,34.6353716090001,-120.452188325,PROPRIETARY,34,N
STEWART WEBSTER HOSPITAL,580 ALSTON STREET,RICHLAND,GA,31825,CRITICAL ACCESS,CLOSED,25,STEWART,32.08616827,-84.660699774,GOVERNMENT - DISTRICT/AUTHORITY,25,N
KAISER FOUNDATION HOSPITAL - ONTARIO,2295 S. VINEYARD AVENUE,ONTARIO,CA,91761,GENERAL ACUTE CARE,OPEN,176,SAN BERNARDINO,34.0320795600001,-117.60859933,NON-PROFIT,176,N
LOMA LINDA UNIV. MED. CENTER EAST CAMPUS HOSPITAL,25333 BARTON ROAD,LOMA LINDA,CA,92354,GENERAL ACUTE CARE,OPEN,134,SAN BERNARDINO,34.047305635,-117.251636776,NON-PROFIT,134,N
ST. BERNARDINE MEDICAL CENTER,2101 NORTH WATERMAN AVENUE,SAN BERNARDINO,CA,92404,GENERAL ACUTE CARE,OPEN,342,SAN BERNARDINO,34.1346723570001,-117.277019975,NON-PROFIT,342,N
KAISER FOUNDATION HOSPITAL - SAN DIEGO - ZION,4647 ZION AVENUE,SAN DIEGO,CA,92120,GENERAL ACUTE CARE,OPEN,414,SAN DIEGO,32.7915625750001,-117.095159549,NON-PROFIT,414,N
SCRIPPS GREEN HOSPITAL,10666 NORTH TORREY PINES ROAD,LA JOLLA,CA,92037,GENERAL ACUTE CARE,OPEN,173,SAN DIEGO,32.896858901,-117.24287107,NON-PROFIT,173,N
SCRIPPS MEMORIAL HOSPITAL - ENCINITAS,354 SANTA FE DRIVE,ENCINITAS,CA,92024,GENERAL ACUTE CARE,OPEN,194,SAN DIEGO,33.0373447760001,-117.284183383,NON-PROFIT,194,Y
SHARP MARY BIRCH HOSPITAL FOR WOMEN AND NEWBORNS,3003 HEALTH CENTER DRIVE,SAN DIEGO,CA,92123,WOMEN,OPEN,206,SAN DIEGO,32.7982957780001,-117.154977819,NON-PROFIT,206,Y
UC SAN DIEGO HEALTH HILLCREST - HILLCREST MEDICAL CENTER,200 WEST ARBOR DRIVE,SAN DIEGO,CA,92103,GENERAL ACUTE CARE,OPEN,390,SAN DIEGO,32.754770233,-117.165731384,NON-PROFIT,390,Y
CALIFORNIA PACIFIC MED CTR-CALIFORNIA WEST,3700 CALIFORNIA STREET,SAN FRANCISCO,CA,94118,GENERAL ACUTE CARE,OPEN,299,SAN FRANCISCO,37.786509197,-122.456030633,NON-PROFIT,299,N
CALIFORNIA PACIFIC MED CTR-PACIFIC CAMPUS,2333 BUCHANAN STREET,SAN FRANCISCO,CA,94115,GENERAL ACUTE CARE,CLOSED,309,SAN FRANCISCO,37.7907045380001,-122.431294533,NON-PROFIT,309,N
"ST. MARY'S MEDICAL CENTER, SAN FRANCISCO",450 STANYAN STREET,SAN FRANCISCO,CA,94117,GENERAL ACUTE CARE,OPEN,403,SAN FRANCISCO,37.77408876,-122.453751642,NON-PROFIT,403,N
KAISER FOUNDATION HOSPITAL - SANTA ROSA,401 BICENTENNIAL WAY,SANTA ROSA,CA,95403,GENERAL ACUTE CARE,OPEN,173,SONOMA,38.471793006,-122.72706436,NON-PROFIT,173,N
KAISER FOUNDATION HOSPITAL & REHAB CENTER - VALLEJO,975 SERENO DRIVE,VALLEJO,CA,94589,GENERAL ACUTE CARE,OPEN,248,SOLANO,38.12690208,-122.248377304,NON-PROFIT,248,N
WOODLAND MEMORIAL HOSPITAL,1325 COTTONWOOD STREET,WOODLAND,CA,95695,GENERAL ACUTE CARE,OPEN,108,YOLO,38.663925024,-121.792145249,NON-PROFIT,108,N
ALTA BATES SUMMIT MEDICAL CENTER - SUMMIT CAMPUS,3100 SUMMIT STREET,OAKLAND,CA,94609,GENERAL ACUTE CARE,OPEN,75,ALAMEDA,37.8201396110001,-122.26400415,NON-PROFIT,75,N
SAN LEANDRO HOSPITAL,13855 EAST 14TH STREET,SAN LEANDRO,CA,94578,GENERAL ACUTE CARE,OPEN,93,ALAMEDA,37.712288347,-122.143493689,NON-PROFIT,93,N
ST. ROSE HOSPITAL,27200 CALAROGA AVENUE,HAYWARD,CA,94545,GENERAL ACUTE CARE,OPEN,217,ALAMEDA,37.6334419930001,-122.087912534,NON-PROFIT,217,N
ST. JOSEPH'S BEHAVIORAL HEALTH CENTER,2510 NORTH CALIFORNIA STREET,STOCKTON,CA,95204,PSYCHIATRIC,OPEN,35,SAN JOAQUIN,37.9765963,-121.291070926,NON-PROFIT,35,N
ST. JOSEPH'S MEDICAL CENTER OF STOCKTON,1800 NORTH CALIFORNIA STREET,STOCKTON,CA,95204,GENERAL ACUTE CARE,OPEN,364,SAN JOAQUIN,37.970467188,-121.288182762,NON-PROFIT,364,Y
EMANATE HEALTH FOOTHILL PRESBYTERIAN HOSPITAL,250 SOUTH GRAND AVENUE,GLENDORA,CA,91741,GENERAL ACUTE CARE,OPEN,105,LOS ANGELES,34.1326545760001,-117.871259716,NON-PROFIT,105,Y
GLENDALE MEMORIAL HOSPITAL AND HEALTH CENTER,1420 SOUTH CENTRAL AVENUE,GLENDALE,CA,91204,GENERAL ACUTE CARE,OPEN,334,LOS ANGELES,34.128165628,-118.256643169,NON-PROFIT,334,N
KAISER FOUNDATION HOSPITAL - LOS ANGELES,4867 SUNSET BOULEVARD,LOS ANGELES,CA,90027,GENERAL ACUTE CARE,OPEN,460,LOS ANGELES,34.0985736490001,-118.294175331,NON-PROFIT,460,N
KAISER FOUNDATION HOSPITAL - PANORAMA CITY,13652 CANTARA STREET,PANORAMA CITY,CA,91402,GENERAL ACUTE CARE,OPEN,218,LOS ANGELES,34.2185641940001,-118.430219294,NON-PROFIT,218,N
PROVIDENCE CEDARS-SINAI TARZANA MEDICAL CENTER,18321 CLARK STREET,TARZANA,CA,91356,GENERAL ACUTE CARE,OPEN,249,LOS ANGELES,34.170393216,-118.531904059,NON-PROFIT,249,N
SHRINERS HOSPITAL FOR CHILDREN - L.A.,3160 GENEVA STREET,LOS ANGELES,CA,90020,GENERAL ACUTE CARE,CLOSED,60,LOS ANGELES,34.067204777,-118.286392079,NON-PROFIT,60,N
GARDENS REGIONAL HOSPITAL AND MEDICAL CENTER,21530 SOUTH PIONEER BOULEVARD,HAWAIIAN GARDENS,CA,90716,GENERAL ACUTE CARE,OPEN,107,LOS ANGELES,33.833640007,-118.079677951,NON-PROFIT,107,N
ADVENTIST HEALTH CLEARLAKE,15630 18TH AVE,CLEARLAKE,CA,95422,GENERAL ACUTE CARE,OPEN,32,LAKE,38.935618855,-122.620144532,NON-PROFIT,32,Y
VALLEY CHILDREN'S HOSPITAL,9300 VALLEY CHILDREN'S PLACE,MADERA,CA,93636,CHILDREN,OPEN,356,MADERA,36.8840478340001,-119.800242412,NON-PROFIT,356,Y
EISENHOWER MEDICAL CENTER,39000 BOB HOPE DR,RANCHO MIRAGE,CA,92270,GENERAL ACUTE CARE,OPEN,489,RIVERSIDE,33.7633520680001,-116.406241091,NON-PROFIT,489,Y
GOOD SAMARITAN HOSPITAL-SAN JOSE,2425 SAMARITAN DRIVE,SAN JOSE,CA,95124,GENERAL ACUTE CARE,OPEN,404,SANTA CLARA,37.252078736,-121.946576875,NON-PROFIT,404,Y
KAISER FOUNDATION HOSPITAL - SANTA CLARA,700 LAWRENCE EXPRESSWAY,SANTA CLARA,CA,95051,GENERAL ACUTE CARE,OPEN,327,SANTA CLARA,37.3354013750001,-121.998873047,NON-PROFIT,327,Y
LUCILE PACKARD CHILDREN'S HOSPITAL STANFORD,725 WELCH ROAD,PALO ALTO,CA,94304,CHILDREN,OPEN,302,SANTA CLARA,37.436004575,-122.175390036,NON-PROFIT,302,Y
KAISER FOUNDATION HOSPITAL - REDWOOD CITY,1100 VETERANS BOULEVARD,REDWOOD CITY,CA,94063,GENERAL ACUTE CARE,OPEN,149,SAN MATEO,37.488847836,-122.223390131,NON-PROFIT,149,N
JOHN MUIR MEDICAL CENTER-CONCORD CAMPUS,2540 EAST STREET,CONCORD,CA,94520,GENERAL ACUTE CARE,OPEN,245,CONTRA COSTA,37.9830895790001,-122.033496796,NON-PROFIT,245,N
SUTTER DELTA MEDICAL CENTER,3901 LONE TREE WAY,ANTIOCH,CA,94509,GENERAL ACUTE CARE,OPEN,145,CONTRA COSTA,37.9822344500001,-121.802978505,NON-PROFIT,145,Y
KAISER FOUNDATION HOSPITAL - SACRAMENTO,2025 MORSE AVENUE,SACRAMENTO,CA,95825,GENERAL ACUTE CARE,OPEN,287,SACRAMENTO,38.601797751,-121.393144026,NON-PROFIT,287,N
SIERRA NEVADA MEMORIAL HOSPITAL,155 GLASSON WAY,GRASS VALLEY,CA,95945,GENERAL ACUTE CARE,OPEN,104,NEVADA,39.228016294,-121.047499779,NON-PROFIT,104,Y
LA PALMA INTERCOMMUNITY HOSPITAL,7901 WALKER STREET,LA PALMA,CA,90623,GENERAL ACUTE CARE,OPEN,141,ORANGE,33.8475141810001,-118.038302332,NON-PROFIT,141,Y
SADDLEBACK MEMORIAL MEDICAL CENTER - SAN CLEMENTE,654 CAMINO DE LOS MARES,SAN CLEMENTE,CA,92673,GENERAL ACUTE CARE,CLOSED,73,ORANGE,33.457065243,-117.650183918,NON-PROFIT,73,N
FREMONT MEDICAL CENTER,970 PLUMAS STREET,YUBA CITY,CA,95991,GENERAL ACUTE CARE,CLOSED,46,SUTTER,39.143106319,-121.618012022,NON-PROFIT,46,N
PIEDMONT MOUNTAINSIDE HOSPITAL,1266 EAST CHURCH STREET,JASPER,GA,30143,GENERAL ACUTE CARE,OPEN,52,PICKENS,34.4582486800001,-84.412912891,NON-PROFIT,52,N
ST MARY'S HOSPITAL,1230 BAXTER STREET,ATHENS,GA,30606,GENERAL ACUTE CARE,OPEN,196,CLARKE,33.9472213170001,-83.4052524589999,NON-PROFIT,196,Y
RIDGEVIEW INSTITUTE,3995 SOUTH COBB DRIVE SE,SMYRNA,GA,30080,PSYCHIATRIC,CLOSED,216,COBB,33.8564432910001,-84.51105483,NON-PROFIT,216,N
WESTERLY HOSPITAL,25 WELLS ST,WESTERLY,RI,2891,GENERAL ACUTE CARE,OPEN,125,WASHINGTON,41.3621890750001,-71.825303241,NON-PROFIT,125,N
SSM HEALTH ST MARY'S HOSPITAL - MADISON,700 SOUTH PARK ST,MADISON,WI,53715,GENERAL ACUTE CARE,OPEN,440,DANE,43.0593384640001,-89.401429215,NON-PROFIT,440,Y
AURORA PSYCHIATRIC HOSPITAL,1220 DEWEY AVE,WAUWATOSA,WI,53213,PSYCHIATRIC,OPEN,105,MILWAUKEE,43.046765098,-88.007716433,NON-PROFIT,105,N
THEDACARE MEDICAL CENTER BERLIN,225 MEMORIAL DRIVE,BERLIN,WI,54923,GENERAL ACUTE CARE,OPEN,25,GREEN LAKE,43.9784771540001,-88.94122636,NON-PROFIT,25,Y
MERCY HOSPITAL NORTHWEST ARKANSAS,2710 RIFE MEDICAL LANE,ROGERS,AR,72758,GENERAL ACUTE CARE,OPEN,208,BENTON,36.3089928530001,-94.18297802,NOT AVAILABLE,208,Y
ST CROIX REGIONAL MEDICAL CENTER,235 STATE STREET,SAINT CROIX FALLS,WI,54024,GENERAL ACUTE CARE,OPEN,25,POLK,45.4090324310001,-92.642578117,NON-PROFIT,25,Y
WESTFIELDS HOSPITAL AND CLINIC,535 HOSPITAL RD,NEW RICHMOND,WI,54017,GENERAL ACUTE CARE,OPEN,25,ST. CROIX,45.1177607480001,-92.555500378,NON-PROFIT,25,Y
ST NICHOLAS HOSPITAL,3100 SUPERIOR AVE,SHEBOYGAN,WI,53081,GENERAL ACUTE CARE,OPEN,185,SHEBOYGAN,43.7623479010001,-87.747537955,NON-PROFIT,185,Y
VERNON MEMORIAL HOSPITAL,507 SOUTH MAIN ST,VIROQUA,WI,54665,GENERAL ACUTE CARE,OPEN,25,VERNON,43.5516739730001,-90.888391278,NON-PROFIT,25,N
PIH HEALTH HOSPITAL - DOWNEY,11500 BROOKSHIRE AVENUE,DOWNEY,CA,90241,GENERAL ACUTE CARE,OPEN,199,LOS ANGELES,33.9343517980001,-118.13090396,NON-PROFIT,199,N
PROVIDENCE LITTLE COMPANY OF MARY TRANSITIONAL CARE CENTER,4320 MARICOPA STREET,TORRANCE,CA,90503,GENERAL ACUTE CARE,OPEN,115,LOS ANGELES,33.8393481160001,-118.359721519,NON-PROFIT,115,N
LOMA LINDA UNIVERSITY CHILDREN'S HOSPITAL,11234 ANDERSON STREET,LOMA LINDA,CA,92354,CHILDREN,OPEN,343,SAN BERNARDINO,34.050130832,-117.264094455,NON-PROFIT,343,Y
ASCENSION NE WISCONSIN MERCY CAMPUS,500 S OAKWOOD RD,OSHKOSH,WI,54904,GENERAL ACUTE CARE,OPEN,157,WINNEBAGO,44.0124207170001,-88.601045493,NON-PROFIT,157,Y
MEDSTAR- GEORGETOWN UNIVERSITY HOSPITAL,"3800 RESERVOIR ROAD, NW",WASHINGTON,DC,20007,GENERAL ACUTE CARE,OPEN,609,DISTRICT OF COLUMBIA,38.9119585080001,-77.0752545729999,GOVERNMENT - STATE,609,Y
ADVENTHEALTH DADE CITY,13100 FORT KING RD,DADE CITY,FL,33525,GENERAL ACUTE CARE,OPEN,120,PASCO,28.3479628600001,-82.2007200799999,PROPRIETARY,120,N
DELRAY MEDICAL CENTER,5352 LINTON BLVD,DELRAY BEACH,FL,33484,GENERAL ACUTE CARE,OPEN,536,PALM BEACH,26.4371928410001,-80.127787747,PROPRIETARY,536,Y
POINCIANA MEDICAL CENTER,325 CYPRESS PKWY,KISSIMMEE,FL,34758,GENERAL ACUTE CARE,OPEN,76,OSCEOLA,28.144780763,-81.476687855,PROPRIETARY,76,Y
ARBOUR FULLER HOSPITAL,200 MAY STREET,ATTLEBORO,MA,2703,PSYCHIATRIC,OPEN,103,BRISTOL,41.9240838480001,-71.3611225619999,PROPRIETARY,103,N
ARBOUR HUMAN RESOURCE INSTITUTE,227 BABCOCK STREET,BROOKLINE,MA,2146,PSYCHIATRIC,OPEN,66,NORFOLK,42.3507795100001,-71.121242281,PROPRIETARY,66,N
ASCENSION ST VINCENT'S CLAY COUNTY,1670 ST. VINCENT'S WAY,MIDDLEBURG,FL,32068,GENERAL ACUTE CARE,OPEN,106,CLAY,30.108762428,-81.832688692,NON-PROFIT,106,Y
ENCOMPASS HEALTH REHABILITATION HOSPITAL OF OCALA,2275 SW 22ND LANE,OCALA,FL,34471,REHABILITATION,OPEN,60,MARION,29.165875541,-82.1623349449999,PROPRIETARY,60,N
"NATCHAUG HOSPITAL, INC.",189 STORRS RD,MANSFIELD CENTER,CT,6250,PSYCHIATRIC,OPEN,57,TOLLAND,41.7411039190001,-72.198011482,NON-PROFIT,57,N
ENCOMPASS HEALTH REHAB HOSPITAL AN AFFILIATE OF MARTIN HEALTH,5850 SE COMMUNITY DR,STUART,FL,34997,REHABILITATION,OPEN,54,MARTIN,27.133437293,-80.222455815,PROPRIETARY,54,N
SHRINERS' HOSPITAL FOR CHILDREN,51 BLOSSOM ST,BOSTON,MA,2114,CHILDREN,OPEN,30,SUFFOLK,42.3630925480001,-71.066301879,NON-PROFIT,30,N
SPAULDING REHABILITATION HOSPITAL,300 FIRST AVENUE,BOSTON,MA,2129,REHABILITATION,OPEN,132,SUFFOLK,42.3785090760001,-71.049055546,NON-PROFIT,132,N
DR JOHN C CORRIGAN MENTAL HEALTH CENTER,49 HILLSIDE STREET,FALL RIVER,MA,2720,PSYCHIATRIC,OPEN,16,BRISTOL,41.707486913,-71.145714465,GOVERNMENT - STATE,16,N
BAY RIDGE HOSPITAL BEVERLY,60 GRANITE STREET,LYNN,MA,1904,PSYCHIATRIC,OPEN,62,ESSEX,42.471620106,-70.956760931,NON-PROFIT,62,N
ENCOMPASS HEALTH REHAB HOSPITAL OF WESTERN MASS,222 STATE STREET,LUDLOW,MA,1056,REHABILITATION,OPEN,53,HAMPDEN,42.155775937,-72.472077338,PROPRIETARY,53,N
T J HEALTH COLUMBIA,901 WESTLAKE DRIVE,COLUMBIA,KY,42728,GENERAL ACUTE CARE,OPEN,74,ADAIR,37.0966415730001,-85.29454565,NON-PROFIT,74,Y
DECATUR COUNTY HOSPITAL,1405 NORTHWEST CHURCH STREET,LEON,IA,50144,GENERAL ACUTE CARE,OPEN,25,DECATUR,40.750934665,-93.746940772,GOVERNMENT - LOCAL,25,Y
ANDERSON COUNTY HOSPITAL,421 SOUTH MAPLE STREET,GARNETT,KS,66032,CRITICAL ACCESS,OPEN,41,ANDERSON,38.2797210620001,-95.251773234,NON-PROFIT,41,Y
KEARNY COUNTY HOSPITAL,500 THORPE STREET,LAKIN,KS,67860,CRITICAL ACCESS,OPEN,25,KEARNY,37.9465932690001,-101.251929912,GOVERNMENT - LOCAL,25,N
OTTAWA COUNTY HEALTH CENTER,215 E 8TH STREET,MINNEAPOLIS,KS,67467,CRITICAL ACCESS,OPEN,42,OTTAWA,39.1293319640001,-97.7039442509999,NON-PROFIT,42,N
BETH ISRAEL DEACONESS HOSPITAL - NEEDHAM,148 CHESTNUT STREET,NEEDHAM,MA,2492,GENERAL ACUTE CARE,OPEN,58,NORFOLK,42.2771000000001,-71.2368999999999,NON-PROFIT,58,N
VIBRA HOSPITAL OF SOUTHEASTERN MASSACHUSETTS,4499 ACUSHNET AVENUE,NEW BEDFORD,MA,2745,REHABILITATION,OPEN,90,BRISTOL,41.740725232,-70.945753607,PROPRIETARY,90,N
NORWOOD HOSPITAL,800 WASHINGTON ROAD,NORWOOD,MA,2062,GENERAL ACUTE CARE,OPEN,215,NORFOLK,42.1890000000001,-71.2021,PROPRIETARY,215,Y
SPAULDING REHABILITATION HOSPITAL CAPE COD,311 SERVICE ROAD,SANDWICH,MA,2537,REHABILITATION,OPEN,60,BARNSTABLE,41.7329844970001,-70.4681028369999,NON-PROFIT,60,N
CAMBRIDGE HEALTH ALLIANCE - SOMERVILLE CAMPUS,230 HIGHLAND AVENUE,SOMERVILLE,MA,2143,GENERAL ACUTE CARE,OPEN,124,MIDDLESEX,42.39,-71.1093999999999,GOVERNMENT - DISTRICT/AUTHORITY,124,N
MERCY HOSPITAL FORT SMITH,7301 ROGERS AVENUE,FORT SMITH,AR,72903,GENERAL ACUTE CARE,OPEN,336,SEBASTIAN,35.355865991,-94.352054967,NON-PROFIT,336,Y
ENCOMPASS HEALTH REHABILITATION HOSPITAL OF FORT SMITH,1401 SOUTH J STREET,FORT SMITH,AR,72901,REHABILITATION,OPEN,80,SEBASTIAN,35.3739403050001,-94.4187544819999,PROPRIETARY,80,Y
UNITY HEALTH WHITE COUNTY MEDICAL CENTER,3214 EAST RACE AVENUE,SEARCY,AR,72143,GENERAL ACUTE CARE,OPEN,286,WHITE,35.2518860440001,-91.697001131,NON-PROFIT,286,Y
BAPTIST HEALTH MEDICAL CENTER - ARKADELPHIA,3050 TWIN RIVERS DRIVE,ARKADELPHIA,AR,71923,CRITICAL ACCESS,OPEN,25,CLARK,34.1229135660001,-93.088824163,NON-PROFIT,25,Y
MERCY HOSPITAL BERRYVILLE,214 CARTER STREET,BERRYVILLE,AR,72616,CRITICAL ACCESS,OPEN,25,CARROLL,36.359062103,-93.551825772,NON-PROFIT,25,Y
EUREKA SPRINGS HOSPITAL,24 NORRIS STREET,EUREKA SPRINGS,AR,72632,CRITICAL ACCESS,OPEN,22,CARROLL,36.400163789,-93.744235921,PROPRIETARY,22,Y
BRADLEY COUNTY MEDICAL CENTER,404 SOUTH BRADLEY STREET,WARREN,AR,71671,CRITICAL ACCESS,OPEN,35,BRADLEY,33.6103641340001,-92.059254885,NON-PROFIT,35,Y
ST. BERNARDS FIVE RIVERS MEDICAL CENTER,2801 MEDICAL CENTER DRIVE,POCAHONTAS,AR,72455,GENERAL ACUTE CARE,OPEN,50,RANDOLPH,36.2897602730001,-90.99738763,NON-PROFIT,50,Y
DALLAS COUNTY MEDICAL CENTER,201 NORTH CLIFTON STREET,FORDYCE,AR,71742,CRITICAL ACCESS,OPEN,25,DALLAS,33.81085539,-92.425587644,GOVERNMENT - LOCAL,25,Y
CRITTENDEN HOSPITAL ASSOCIATION,200 WEST TYLER AVENUE,WEST MEMPHIS,AR,72301,GENERAL ACUTE CARE,CLOSED,152,CRITTENDEN,35.1431102350001,-90.1890985109999,NON-PROFIT,152,Y
OUACHITA COUNTY MEDICAL CENTER,638 CALIFORNIA AVENUE,CAMDEN,AR,71701,GENERAL ACUTE CARE,OPEN,100,OUACHITA,33.5758211300001,-92.8367393299999,NON-PROFIT,100,Y
NORTH ARKANSAS REGIONAL MEDICAL CENTER,620 NORTH MAIN STREET,HARRISON,AR,72601,GENERAL ACUTE CARE,OPEN,174,BOONE,36.2365313550001,-93.1091393739999,NON-PROFIT,174,Y
STONE COUNTY MEDICAL CENTER,"2106 EAST MAIN STREET, HIGHWAY 14 EAST",MOUNTAIN VIEW,AR,72560,CRITICAL ACCESS,OPEN,25,STONE,35.856583126,-92.0828645349999,NON-PROFIT,25,Y
PIGGOTT COMMUNITY HOSPITAL,1206 GORDON DUCKWORTH DRIVE,PIGGOTT,AR,72454,CRITICAL ACCESS,OPEN,25,CLAY,36.390119473,-90.20483796,GOVERNMENT - LOCAL,25,Y
BAPTIST HEALTH MEDICAL CENTER - HEBER SPRINGS,1800 BYPASS ROAD,HEBER SPRINGS,AR,72543,CRITICAL ACCESS,OPEN,25,CLEBURNE,35.504501126,-91.9979984999999,NON-PROFIT,25,Y
CHI ST. VINCENT MORRILTON,4 HOSPITAL DRIVE,MORRILTON,AR,72110,CRITICAL ACCESS,OPEN,35,CONWAY,35.168014912,-92.721351317,NON-PROFIT,35,Y
UAMS MEDICAL CENTER,4301 WEST MARKHAM STREET,LITTLE ROCK,AR,72205,GENERAL ACUTE CARE,OPEN,400,PULASKI,34.7490251460001,-92.320137314,GOVERNMENT - STATE,400,Y
BAPTIST HEALTH MEDICAL CENTER - NORTH LITTLE ROCK,3333 SPRINGHILL DRIVE,LITTLE ROCK,AR,72117,GENERAL ACUTE CARE,OPEN,248,PULASKI,34.7836548870001,-92.223409163,NON-PROFIT,248,Y
UNITED METHODIST BEHAVIORAL HOSPITAL,1601 MURPHY DRIVE,MAUMELLE,AR,72113,PSYCHIATRIC,OPEN,60,PULASKI,34.8764356660001,-92.394413249,NON-PROFIT,60,N
LEVI HOSPITAL,300 PROSPECT AVENUE,HOT SPRINGS,AR,71901,GENERAL ACUTE CARE,OPEN,89,GARLAND,34.5098970650001,-93.057577489,NON-PROFIT,89,N
HOT SPRINGS REHABILITATION CENTER,105 RESERVE STREET,HOT SPRINGS,AR,71901,REHABILITATION,CLOSED,35,GARLAND,34.5121250130001,-93.052607872,GOVERNMENT - STATE,35,N
CHI ST VINCENT HOSPITAL HOT SPRINGS,300 WERNER STREET,HOT SPRINGS,AR,71913,GENERAL ACUTE CARE,OPEN,289,GARLAND,34.46802567,-93.066270414,NON-PROFIT,289,Y
BAPTIST HEALTH MEDICAL CENTER - HOT SPRING COUNTY,1001 SCHNEIDER DRIVE,MALVERN,AR,72104,GENERAL ACUTE CARE,OPEN,72,HOT SPRING,34.358774038,-92.785888401,PROPRIETARY,72,Y
ARKANSAS DEPT. OF CORRECTION-DIAGNOSTIC UNIT,7500 CORRECTIONS CIRCLE,PINE BLUFF,AR,71603,GENERAL ACUTE CARE,OPEN,27,JEFFERSON,34.2221914250001,-92.082686048,GOVERNMENT - STATE,27,N
JEFFERSON REGIONAL MEDICAL CENTER,1600 WEST 40TH AVENUE,PINE BLUFF,AR,71603,GENERAL ACUTE CARE,OPEN,471,JEFFERSON,34.1877346910001,-92.017680195,NON-PROFIT,471,Y
ENCOMPASS HEALTH REHABILITATION HOSPITAL-A PARTNER OF WASHINGTON REGIONAL,153 EAST MONTE PAINTER DRIVE,FAYETTEVILLE,AR,72703,REHABILITATION,OPEN,60,WASHINGTON,36.109099384,-94.154845038,PROPRIETARY,60,N
MEMORIAL HEALTH UNIVERSITY MEDICAL CENTER,4700 WATERS AVENUE,SAVANNAH,GA,31404,GENERAL ACUTE CARE,OPEN,512,CHATHAM,32.030530877,-81.088862423,NON-PROFIT,512,Y
VANTAGE POINT OF NORTHWEST ARKANSAS,4253 CROSSOVER ROAD,FAYETTEVILLE,AR,72703,PSYCHIATRIC,OPEN,114,WASHINGTON,36.1278907560001,-94.119851426,PROPRIETARY,114,N
NORTHWEST MEDICAL CENTER - WILLOW CREEK WOMEN'S HOSPITAL,4301 GREATHOUSE SPRINGS ROAD,SPRINGDALE,AR,72741,WOMEN,OPEN,64,WASHINGTON,36.1355102700001,-94.1862192249999,PROPRIETARY,64,Y
ASCENSION NE WISCONSIN - ST ELIZABETH CAMPUS,1506 S ONEIDA ST,APPLETON,WI,54915,GENERAL ACUTE CARE,OPEN,332,OUTAGAMIE,44.2482512390001,-88.402509675,NON-PROFIT,332,Y
MENA REGIONAL HEALTH SYSTEM,311 NORTH MORROW STREET,MENA,AR,71953,GENERAL ACUTE CARE,OPEN,65,POLK,34.589053601,-94.221631243,GOVERNMENT - LOCAL,65,Y
MERCY HOSPITAL BOONEVILLE,880 WEST MAIN STREET,BOONEVILLE,AR,72927,CRITICAL ACCESS,OPEN,25,LOGAN,35.1403219220001,-93.9351706319999,NON-PROFIT,25,Y
MERCY HOSPITAL PARIS,500 EAST ACADEMY,PARIS,AR,72855,CRITICAL ACCESS,OPEN,16,LOGAN,35.289293339,-93.724878549,NON-PROFIT,16,Y
CROSSRIDGE COMMUNITY HOSPITAL,310 SOUTH FALLS BOULEVARD,WYNNE,AR,72396,GENERAL ACUTE CARE,OPEN,25,CROSS,35.219557917,-90.7866405359999,NOT AVAILABLE,25,Y
BAPTIST HEALTH REHABILITATION INSTITUTE,9601 BAPTIST HEALTH DRIVE,LITTLE ROCK,AR,72205,REHABILITATION,OPEN,120,PULASKI,34.74429608,-92.381816086,NON-PROFIT,120,Y
ASCENSION SACRED HEART REHABILITATION HOSPITAL,"2301 N LAKE DRIVE, 8TH FLOOR",MILWAUKEE,WI,53211,REHABILITATION,OPEN,31,MILWAUKEE,43.0614554430001,-87.880384379,NON-PROFIT,31,N
SANTA CRUZ VALLEY HOSPITAL,4455 SOUTH I-19 FRONTAGE RD,GREEN VALLEY,AZ,85622,GENERAL ACUTE CARE,OPEN,49,PIMA,31.8065711130001,-111.010018508,NOT AVAILABLE,49,Y
BAPTIST HEALTH MEDICAL CENTER-STUTTGART,1703 NORTH BUERKLE ROAD,STUTTGART,AR,72160,GENERAL ACUTE CARE,OPEN,49,ARKANSAS,34.5175108030001,-91.558299542,NON-PROFIT,49,Y
CASEY COUNTY HOSPITAL,187 WOLFORD AVENUE,LIBERTY,KY,42539,CRITICAL ACCESS,OPEN,24,CASEY,37.3177168120001,-84.933171913,GOVERNMENT - LOCAL,24,Y
MARCUM AND WALLACE MEMORIAL HOSPITAL,60 MERCY COURT,IRVINE,KY,40336,CRITICAL ACCESS,OPEN,25,ESTILL,37.7061970980001,-83.977277144,NON-PROFIT,25,Y
HIGHLANDS REGIONAL MEDICAL CENTER,5000 KENTUCKY ROUTE 321,PRESTONSBURG,KY,41653,GENERAL ACUTE CARE,OPEN,174,FLOYD,37.7290100560001,-82.767320076,NON-PROFIT,174,Y
NORTON WOMEN'S AND CHILDREN'S HOSPITAL,4001 DUTCHMANS LANE,LOUISVILLE,KY,40207,WOMEN,OPEN,373,JEFFERSON,38.235330086,-85.6329369279999,NON-PROFIT,373,N
UOFL HEALTH - MARY AND ELIZABETH HOSPITAL,1850 BLUEGRASS AVENUE,LOUISVILLE,KY,40215,GENERAL ACUTE CARE,OPEN,298,JEFFERSON,38.178264384,-85.793916414,NON-PROFIT,298,N
THE BROOK - DUPONT,1405 BROWNS LANE,LOUISVILLE,KY,40207,PSYCHIATRIC,OPEN,88,JEFFERSON,38.235696632,-85.6273409469999,PROPRIETARY,88,N
BAPTIST HEALTH LA GRANGE,1025 NEW MOODY LANE,LAGRANGE,KY,40031,GENERAL ACUTE CARE,OPEN,90,OLDHAM,38.394890194,-85.3760651539999,NON-PROFIT,90,Y
ADCARE HOSPITAL OF WORCESTER INC,107 LINCOLN STREET,WORCESTER,MA,1605,REHABILITATION,OPEN,114,WORCESTER,42.2764120840001,-71.794919787,PROPRIETARY,114,N
EDITH NOURSE ROGERS MEMORIAL VETERANS HOSPITAL,200 SPRINGS ROAD,BEDFORD,MA,1730,MILITARY,OPEN,147,MIDDLESEX,42.5047000000001,-71.2744,GOVERNMENT - FEDERAL,147,N
AMESBURY HEALTH CENTER,24 MORRILL PLACE,AMESBURY,MA,1913,GENERAL ACUTE CARE,OPEN,12,ESSEX,42.8484143950001,-70.933380246,NON-PROFIT,12,N
BETH ISRAEL DEACONESS MEDICAL CENTER - WEST CAMPUS,ONE DEACONESS RD,BOSTON,MA,2215,GENERAL ACUTE CARE,OPEN,405,SUFFOLK,42.3379,-71.1092,NON-PROFIT,405,Y
"ARBOUR HOSPITAL, THE",49 ROBINWOOD AVENUE,BOSTON,MA,2130,PSYCHIATRIC,OPEN,136,SUFFOLK,42.3158184070001,-71.11227314,PROPRIETARY,136,N
BEVERLY HOSPITAL ADDISON GILBERT CAMPUS,298 WASHINGTON STREET,GLOUCESTER,MA,1930,GENERAL ACUTE CARE,OPEN,79,ESSEX,42.6255,-70.6806,NON-PROFIT,79,N
VIBRA HOSPITAL OF WESTERN MASS CENTRAL CAMPUS,111 HUNTOON MEMORIAL HIGHWAY,LEICESTER,MA,1542,LONG TERM CARE,OPEN,47,WORCESTER,42.201899283,-71.8988273429999,PROPRIETARY,47,N
WORCESTER RECOVERY CENTER AND HOSPITAL,309 BELMONT STREET,WORCESTER,MA,1604,PSYCHIATRIC,OPEN,166,WORCESTER,42.279667187,-71.769066943,GOVERNMENT - STATE,166,N
HOULTON REGIONAL HOSPITAL,20 HARTFORD STREET,HOULTON,ME,4730,CRITICAL ACCESS,OPEN,25,AROOSTOOK,46.1338462430001,-67.843623468,NON-PROFIT,25,Y
NORTHERN LIGHT INLAND HOSPITAL,200 KENNEDY MEMORIAL DRIVE,WATERVILLE,ME,4901,GENERAL ACUTE CARE,OPEN,48,KENNEBEC,44.541826482,-69.661491065,NON-PROFIT,48,Y
MAINEGENERAL MEDICAL CENTER,6 EAST CHESTNUT STREET,AUGUSTA,ME,4330,GENERAL ACUTE CARE,OPEN,146,KENNEBEC,44.3131197610001,-69.7684343719999,NON-PROFIT,146,N
MAINEGENERAL MEDICAL CENTER-SETON,30 CHASE AVENUE,WATERVILLE,ME,4901,GENERAL ACUTE CARE,CLOSED,75,KENNEBEC,44.549192727,-69.658673563,NON-PROFIT,75,N
SAINT ANDREWS HOSPITAL AND HEALTHCARE CENTER,6 SAINT ANDREWS LANE,BOOTHBAY HARBOR,ME,4538,GENERAL ACUTE CARE,OPEN,52,LINCOLN,43.850343927,-69.6387693039999,NON-PROFIT,52,Y
MIDMICHIGAN MEDICAL CENTER-GLADWIN,515 QUARTER STREET,GLADWIN,MI,48624,CRITICAL ACCESS,OPEN,25,GLADWIN,43.975943671,-84.493887563,NON-PROFIT,25,Y
HELEN NEWBERRY JOY HOSPITAL,502 W HARRIE ST,NEWBERRY,MI,49868,CRITICAL ACCESS,OPEN,25,LUCE,46.3531800920001,-85.515653738,GOVERNMENT - LOCAL,25,N
MUNISING MEMORIAL HOSPITAL,1500 SAND POINT RD,MUNISING,MI,49862,CRITICAL ACCESS,OPEN,11,ALGER,46.4252710700001,-86.625185297,NON-PROFIT,11,N
BOURNEWOOD HOSPITAL,300 SOUTH STREET,BROOKLINE,MA,2167,PSYCHIATRIC,OPEN,90,NORFOLK,42.298318572,-71.1492856839999,PROPRIETARY,90,N
SAINT JOSEPH MERCY LIVINGSTON HOSPITAL,620 BYRON RD,HOWELL,MI,48843,GENERAL ACUTE CARE,OPEN,136,LIVINGSTON,42.6155875640001,-83.940990396,NON-PROFIT,136,Y
HILLSDALE HOSPITAL,168 S HOWELL STREET,HILLSDALE,MI,49242,GENERAL ACUTE CARE,OPEN,65,HILLSDALE,41.9117386880001,-84.633003534,NON-PROFIT,65,Y
DMC SURGERY HOSPITAL,30671 STEPHENSON HIGHWAY,MADISON HEIGHTS,MI,48071,GENERAL ACUTE CARE,OPEN,36,OAKLAND,42.517887537,-83.120107267,NON-PROFIT,36,N
LAKELAND HOSPITAL WATERVLIET,400 MEDICAL PARK DR,WATERVLIET,MI,49098,GENERAL ACUTE CARE,OPEN,38,BERRIEN,42.1848804640001,-86.249925827,NON-PROFIT,38,Y
MCLAREN CENTRAL MICHIGAN,1221 SOUTH DRIVE,MOUNT PLEASANT,MI,48858,GENERAL ACUTE CARE,OPEN,118,ISABELLA,43.5991224840001,-84.7614128609999,NON-PROFIT,118,Y
SPECTRUM HEALTH LUDINGTON HOSPITAL,ONE N ATKINSON DRIVE,LUDINGTON,MI,49431,GENERAL ACUTE CARE,OPEN,49,MASON,43.9581479410001,-86.430409384,NON-PROFIT,49,Y
BRONSON LAKEVIEW HOSPITAL,408 HAZEN STREET,PAW PAW,MI,49079,GENERAL ACUTE CARE,OPEN,35,VAN BUREN,42.221294361,-85.897070061,NON-PROFIT,35,Y
DECKERVILLE COMMUNITY HOSPITAL,3559 PINE ST,DECKERVILLE,MI,48427,GENERAL ACUTE CARE,OPEN,15,SANILAC,43.5281192100001,-82.734249152,NON-PROFIT,15,N
HENRY FORD HOSPITAL,2799 W GRAND BLVD,DETROIT,MI,48202,GENERAL ACUTE CARE,OPEN,877,WAYNE,42.3676867830001,-83.08472312,NON-PROFIT,877,Y
MAYO CLINIC ALBERT LEA AUSTIN,404 WEST FOUNTAIN STREET,ALBERT LEA,MN,56007,GENERAL ACUTE CARE,OPEN,159,FREEBORN,43.6523606970001,-93.372752304,NON-PROFIT,159,Y
MAYO CLINIC HEALTH SYS CF,32021 COUNTY 24 BOULEVARD,CANNON FALLS,MN,55009,CRITICAL ACCESS,OPEN,15,GOODHUE,44.486164639,-92.903202301,NON-PROFIT,15,Y
MAYO CLINIC HEALTH SYSTEM,800 MEDICAL CENTER DRIVE,FAIRMONT,MN,56031,GENERAL ACUTE CARE,OPEN,57,MARTIN,43.6388014610001,-94.450436999,NON-PROFIT,57,Y
MAYO CLINIC HEALTH SYSTEM S F,625 JACKSON ST N,SPRINGFIELD,MN,56087,CRITICAL ACCESS,OPEN,24,BROWN,44.2466191440001,-94.971083614,NON-PROFIT,24,Y
HARRY S. TRUMAN MEMORIAL VETERANS HOSPITAL,800 HOSPITAL DR,COLUMBIA,MO,65201,GENERAL ACUTE CARE,OPEN,126,BOONE,38.9366672620001,-92.3290578519999,GOVERNMENT - FEDERAL,126,N
VIBRA HOSPITAL OF CENTRAL DAKOTAS,1000 18TH ST NW,MANDAN,ND,58554,LONG TERM CARE,OPEN,41,MORTON,46.841869301,-100.907697713,PROPRIETARY,41,N
JACOBSON MEMORIAL HOSPITAL & CARE CENTER,601 EAST ST N,ELGIN,ND,58533,CRITICAL ACCESS,OPEN,30,GRANT,46.407325814,-101.841463455,NON-PROFIT,30,N
COMMUNITY HOSPITAL OF ANDERSON AND MADISON COUNTY,1515 N MADISON AVE,ANDERSON,IN,46011,GENERAL ACUTE CARE,OPEN,137,MADISON,40.1306455880001,-85.693209184,NON-PROFIT,137,Y
MEMORIAL HOSPITAL OF SOUTH BEND,615 N MICHIGAN ST,SOUTH BEND,IN,46601,GENERAL ACUTE CARE,OPEN,416,ST. JOSEPH,41.684055286,-86.25157885,NON-PROFIT,416,Y
PAM SPECIALTY HOSPITAL OF LAS VEGAS LLC,2500 NORTH TENAYA,LAS VEGAS,NV,89128,LONG TERM CARE,OPEN,70,CLARK,36.205530766,-115.250356365,PROPRIETARY,70,N
DESERT SPRINGS HOSPITAL MEDICAL CENTER,2075 EAST FLAMINGO ROAD,LAS VEGAS,NV,89119,GENERAL ACUTE CARE,OPEN,293,CLARK,36.113959578,-115.124505177,PROPRIETARY,293,Y
EASTERN REGIONAL MEDICAL CENTER,1331 EAST WYOMING AVENUE,PHILADELPHIA,PA,19124,GENERAL ACUTE CARE,OPEN,58,PHILADELPHIA,40.018812978,-75.099464048,PROPRIETARY,58,N
THOMAS JEFFERSON UNIVERSITY HOSPITAL,111 SOUTH 11TH STREET,PHILADELPHIA,PA,19107,GENERAL ACUTE CARE,OPEN,957,PHILADELPHIA,39.9497083750001,-75.157946045,NON-PROFIT,957,Y
PENN PRESBYTERIAN MEDICAL CENTER,51 NORTH 39TH STREET,PHILADELPHIA,PA,19104,GENERAL ACUTE CARE,OPEN,305,PHILADELPHIA,39.9588724830001,-75.199263683,NON-PROFIT,305,Y
ST JOSEPHS HOSPITAL,16TH STREET & GIRARD AVENUE,PHILADELPHIA,PA,19130,GENERAL ACUTE CARE,CLOSED,227,PHILADELPHIA,39.9714860890001,-75.1631901549999,NON-PROFIT,227,N
VA MEDICAL CENTER - PHILADELPHIA,UNIVERSITY & WOODLAND AVENUES,PHILADELPHIA,PA,19104,MILITARY,OPEN,280,PHILADELPHIA,39.94788477,-75.2000750889999,GOVERNMENT - FEDERAL,280,N
GEISINGER MEDICAL CENTER,100 NORTH ACADEMY AVENUE,DANVILLE,PA,17822,GENERAL ACUTE CARE,OPEN,404,MONTOUR,40.968144964,-76.6052561079999,NON-PROFIT,404,N
NORTHSIDE HOSPITAL - CHEROKEE,450 NORTHSIDE CHEROKEE BOULEVARD,CANTON,GA,30115,GENERAL ACUTE CARE,OPEN,158,CHEROKEE,34.2292380000001,-84.466259,NON-PROFIT,158,Y
"SOUTHWELL MEDICAL, A CAMPUS OF TRMC",260 MJ TAYLOR ROAD,ADEL,GA,31620,GENERAL ACUTE CARE,OPEN,60,COOK,31.108198934,-83.427372852,NOT AVAILABLE,60,N
NORTHERN MONTANA HOSPITAL,30 13TH ST,HAVRE,MT,59501,GENERAL ACUTE CARE,OPEN,49,HILL,48.538077306,-109.685817755,NON-PROFIT,49,N
MUSC MEDICAL CENTER,169 ASHLEY AVE,CHARLESTON,SC,29425,GENERAL ACUTE CARE,OPEN,713,CHARLESTON,32.785882041,-79.947921358,GOVERNMENT - DISTRICT/AUTHORITY,713,N
VERITAS COLLABORATIVE GEORGIA,41 PERIMETER CENTER EAST,ATLANTA,GA,30346,PSYCHIATRIC,CLOSED,50,DEKALB,33.924247302,-84.33106507,NOT AVAILABLE,50,N
PAGE MEMORIAL HOSPITAL,200 MEMORIAL DRIVE,LURAY,VA,22835,CRITICAL ACCESS,OPEN,25,PAGE,38.6632500000001,-78.468518,NON-PROFIT,25,Y
ROBINSON MEMORIAL HOSPITAL,6847 N CHESTNUT,RAVENNA,OH,44266,GENERAL ACUTE CARE,OPEN,302,PORTAGE,41.1760577540001,-81.2490172989999,NON-PROFIT,302,Y
DELL CHILDRENS MEDICAL CENTER,4900 MUELLER BLVD,AUSTIN,TX,78723,CHILDREN,OPEN,248,TRAVIS,30.303110831,-97.707022459,NON-PROFIT,248,Y
COOK CHILDREN'S MEDICAL CENTER,801 SEVENTH AVENUE,FORT WORTH,TX,76104,CHILDREN,OPEN,430,TARRANT,32.737071728,-97.341405043,NON-PROFIT,430,Y
ARBOR HEALTH MORTON GENERAL HOSPITAL,521 ADAMS ST,MORTON,WA,98356,CRITICAL ACCESS,OPEN,25,LEWIS,46.55567481,-122.280354393,GOVERNMENT - DISTRICT/AUTHORITY,25,N
"INDIANA SPINE HOSPITAL, LLC",13219 N MERIDIAN STREET,CARMEL,IN,46032,SPECIAL,OPEN,20,HAMILTON,39.9804199480001,-86.1534726249999,NOT AVAILABLE,20,N
ASCENSION SE WISCONSIN HOSPITAL - ELMBROOK CAMPUS,19333 W NORTH AVE,BROOKFIELD,WI,53045,GENERAL ACUTE CARE,OPEN,175,WAUKESHA,43.0593758960001,-88.1545194289999,NON-PROFIT,175,N
ASCENSION SE WISCONSIN HOSPITAL - FRANKLIN CAMPUS,10101 SOUTH 27TH STREET,FRANKLIN,WI,53132,GENERAL ACUTE CARE,OPEN,52,MILWAUKEE,42.86001258,-87.954068104,NON-PROFIT,52,N
ASCENSION SE WISCONSIN HOSPITAL - ST JOSEPH CAMPUS,5000 W CHAMBERS ST,MILWAUKEE,WI,53210,GENERAL ACUTE CARE,OPEN,538,MILWAUKEE,43.074120253,-87.976073404,NON-PROFIT,538,N
ASCENSION ST CLARES HOSPITAL,3400 MINISTRY PARKWAY,WESTON,WI,54476,GENERAL ACUTE CARE,OPEN,99,MARATHON,44.890182311,-89.580145988,NON-PROFIT,99,Y
ASCENSION ST FRANCIS HOSPITAL,3237 S 16TH ST,MILWAUKEE,WI,53215,GENERAL ACUTE CARE,OPEN,260,MILWAUKEE,42.985657749,-87.9346572919999,NON-PROFIT,260,N
ASCENSION ST MARYS HOSPITAL,2251 NORTH SHORE DR,RHINELANDER,WI,54501,GENERAL ACUTE CARE,OPEN,73,ONEIDA,45.639470413,-89.374826589,NON-PROFIT,73,Y
MIAMI VALLEY HOSPITAL,ONE WYOMING STREET,DAYTON,OH,45409,GENERAL ACUTE CARE,OPEN,883,MONTGOMERY,39.7448932040001,-84.185908608,NON-PROFIT,883,Y
ASCENSION ST MICHAELS HOSPITAL,900 ILLINOIS AVE,STEVENS POINT,WI,54481,GENERAL ACUTE CARE,OPEN,94,PORTAGE,44.526431841,-89.5670962149999,NON-PROFIT,94,N
ASPIRUS RIVERVIEW HSPTL ASSOC,410 DEWEY STREET,WISCONSIN RAPIDS,WI,54495,GENERAL ACUTE CARE,OPEN,99,WOOD,44.3817580300001,-89.829889438,NON-PROFIT,99,N
ASPIRUS WAUSAU HOSPITAL,333 PINE RIDGE BLVD,WAUSAU,WI,54401,GENERAL ACUTE CARE,OPEN,325,MARATHON,44.9658418510001,-89.667890213,NON-PROFIT,325,Y
AURORA LAKELAND MEDICAL CENTER,W3985 CTY RD NN,ELKHORN,WI,53121,GENERAL ACUTE CARE,OPEN,109,WALWORTH,42.6618950270001,-88.496191993,NON-PROFIT,109,Y
AURORA MEDICAL CTR WASHINGTON COUNTY,1032 E SUMNER ST,HARTFORD,WI,53027,GENERAL ACUTE CARE,OPEN,71,WASHINGTON,43.3184058430001,-88.362461562,NON-PROFIT,71,Y
AURORA MEDICAL CTR KENOSHA,10400 75TH ST,KENOSHA,WI,53142,GENERAL ACUTE CARE,OPEN,74,KENOSHA,42.5693968150001,-87.9354650229999,NON-PROFIT,74,Y
AURORA MEDICAL CTR MANITOWOC COUNTY,5000 MEMORIAL DR,TWO RIVERS,WI,54241,GENERAL ACUTE CARE,OPEN,69,MANITOWOC,44.125367829,-87.619456133,NON-PROFIT,69,Y
MAJOR HOSPITAL,2451 INTELLIPLEX DRIVE,SHELBYVILLE,IN,46176,GENERAL ACUTE CARE,OPEN,40,SHELBY,39.5603560000001,-85.785817,GOVERNMENT - LOCAL,40,Y
COVENANT CHILDREN'S HOSPITAL,4015 22ND PLACE,LUBBOCK,TX,79410,CHILDREN,OPEN,73,LUBBOCK,33.573403254,-101.900592032,NON-PROFIT,73,Y
PARKVIEW WABASH HOSPITAL,10 JOHN KISSINGER DRIVE,WABASH,IN,46992,GENERAL ACUTE CARE,OPEN,18,WABASH,40.8209370000001,-85.823901,NON-PROFIT,18,Y
NEURO BEHAVIORAL HOSPITAL,9330 BROADWAY,CROWN POINT,IN,46307,PSYCHIATRIC,OPEN,70,LAKE,41.448803072,-87.337260123,NOT AVAILABLE,70,N
PERRY COUNTY MEMORIAL HOSPITAL,8885 SR 237,TELL CITY,IN,47586,GENERAL ACUTE CARE,OPEN,25,PERRY,37.9679310000001,-86.731667,GOVERNMENT - LOCAL,25,Y
PROVIDENCE HOOD RIVER MEMORIAL HOSPITAL,810 12TH STREET,HOOD RIVER,OR,97031,CRITICAL ACCESS,OPEN,25,HOOD RIVER,45.7048319680001,-121.52390863,NON-PROFIT,25,N
RIVERSIDE MEDICAL CENTER,350 N WALL ST,KANKAKEE,IL,60901,GENERAL ACUTE CARE,OPEN,325,KANKAKEE,41.125086857,-87.8818988909999,NON-PROFIT,325,Y
BLUE MOUNTAIN HOSPITAL,170 FORD ROAD,JOHN DAY,OR,97845,CRITICAL ACCESS,OPEN,25,GRANT,44.417112715,-118.959691481,NON-PROFIT,25,N
VASSAR BROTHERS MEDICAL CENTER,45 READE PL,POUGHKEEPSIE,NY,12601,GENERAL ACUTE CARE,OPEN,365,DUTCHESS,41.6938589390001,-73.9357861139999,NON-PROFIT,365,Y
ERIE COUNTY MEDICAL CENTER,462 GRIDER ST,BUFFALO,NY,14215,GENERAL ACUTE CARE,OPEN,550,ERIE,42.9250771000001,-78.8311457679999,GOVERNMENT - DISTRICT/AUTHORITY,550,Y
STRONG MEMORIAL HOSPITAL,601 ELMWOOD AVE,ROCHESTER,NY,14607,GENERAL ACUTE CARE,OPEN,830,MONROE,43.1228088730001,-77.624259428,NON-PROFIT,830,Y
NORTH SHORE UNIVERSITY HOSPITAL,300 COMMUNITY DR,MANHASSET,NY,11030,GENERAL ACUTE CARE,OPEN,764,NASSAU,40.7776359200001,-73.701610944,NON-PROFIT,764,Y
NASSAU UNIVERSITY MEDICAL CENTER,2201 HEMPSTEAD TPKE,EAST MEADOW,NY,11554,GENERAL ACUTE CARE,OPEN,530,NASSAU,40.7262555130001,-73.553738015,GOVERNMENT - DISTRICT/AUTHORITY,530,Y
SOUTH NASSAU COMMUNITIES HOSPITAL,1 HEALTHY WAY,OCEANSIDE,NY,11510,GENERAL ACUTE CARE,OPEN,455,NASSAU,40.6509979950001,-73.630839438,NON-PROFIT,455,N
UNIVERSITY HOSPITAL SUNY HEALTH SCIENCE CENTER,750 E ADAMS ST,SYRACUSE,NY,13210,GENERAL ACUTE CARE,OPEN,409,ONONDAGA,43.0418973170001,-76.139830463,NON-PROFIT,409,Y
ST. LUKE'S CORNWALL HOSPITAL - NEWBURGH CAMPUS,70 DUBOIS ST,NEWBURGH,NY,12550,GENERAL ACUTE CARE,OPEN,242,ORANGE,41.5034248490001,-74.014565578,NON-PROFIT,242,Y
PARKLAND MEDICAL CENTER,ONE PARKLAND DRIVE,DERRY,NH,3038,GENERAL ACUTE CARE,OPEN,86,ROCKINGHAM,42.8767711740001,-71.3166615379999,PROPRIETARY,86,Y
ORANGE REGIONAL MEDICAL CENTER,707 EAST MAIN STREET,MIDDLETOWN,NY,10924,GENERAL ACUTE CARE,OPEN,353,ORANGE,41.441914083,-74.368312265,NON-PROFIT,353,Y
SAMARITAN HOSPITAL,2215 BURDETT AVE,TROY,NY,12180,GENERAL ACUTE CARE,OPEN,212,RENSSELAER,42.7332924850001,-73.6721639959999,NON-PROFIT,212,N
CANTON-POTSDAM HOSPITAL,50 LEROY ST,POTSDAM,NY,13676,GENERAL ACUTE CARE,OPEN,94,ST. LAWRENCE,44.6765106230001,-74.982116316,NON-PROFIT,94,N
PEACEHEALTH PEACE ISLAND MEDICAL CENTER,1117 SPRING ST,FRIDAY HARBOR,WA,98250,CRITICAL ACCESS,OPEN,25,SAN JUAN,48.5267789650001,-123.029601125,NON-PROFIT,25,N
MONTEFLORE NYACK HOSPITAL,160 N MIDLAND AVE,NYACK,NY,10960,GENERAL ACUTE CARE,OPEN,375,ROCKLAND,41.0962114710001,-73.926018132,NON-PROFIT,375,N
SARATOGA HOSPITAL,211 CHURCH ST,SARATOGA,NY,12866,GENERAL ACUTE CARE,OPEN,171,SARATOGA,43.085880219,-73.796782733,NON-PROFIT,171,Y
NORTHSHORE UNIVERSITY HEALTHSYSTEM - DBA NORTHSHORE UNIV. HEALTHSYSTEM HIGHLAND PARK HOSP,777 PARK AVENUE WEST,HIGHLAND PARK,IL,60035,GENERAL ACUTE CARE,OPEN,-999,LAKE,42.1911067670001,-87.808414946,NON-PROFIT,-999,N
ADVOCATE CONDELL MEDICAL CENTER,801 S MILWAUKEE AVE,LIBERTYVILLE,IL,60048,GENERAL ACUTE CARE,OPEN,279,LAKE,42.2742350020001,-87.957699742,NON-PROFIT,279,Y
ADVOCATE HEALTH AND HOSPITALS CORPORATION - DBA GOOD SHEPHERD HOSPITAL,450 WEST HIGHWAY 22,BARRINGTON,IL,60010,GENERAL ACUTE CARE,OPEN,169,LAKE,42.1953823710001,-88.1728188709999,NON-PROFIT,169,Y
GALESBURG COTTAGE HOSPITAL,695 N KELLOGG ST,GALESBURG,IL,61401,GENERAL ACUTE CARE,OPEN,119,KNOX,40.95579903,-90.365760264,NON-PROFIT,119,Y
ST MARY MEDICAL CENTER,3333 NORTH SEMINARY,GALESBURG,IL,61401,GENERAL ACUTE CARE,OPEN,90,KNOX,40.986710283,-90.360244917,NON-PROFIT,90,Y
MIDWESTERN REGIONAL MEDICAL CENTER,2520 ELISHA AVENUE,ZION,IL,60099,GENERAL ACUTE CARE,OPEN,73,LAKE,42.4492578300001,-87.8278328439999,PROPRIETARY,73,N
KENNEDY KREIGER INSTITUTE,707 N BROADWAY,BALTIMORE,MD,21205,GENERAL ACUTE CARE,OPEN,70,BALTIMORE CITY,39.299280975,-76.592818711,NON-PROFIT,70,Y
MERCY MEDICAL CENTER,301 ST PAUL PLACE,BALTIMORE,MD,21202,GENERAL ACUTE CARE,OPEN,281,BALTIMORE CITY,39.2929215520001,-76.612884233,NON-PROFIT,281,N
SINAI HOSPITAL OF BALTIMORE,2401 WEST BELVEDERE AVE,BALTIMORE,MD,21215,GENERAL ACUTE CARE,OPEN,467,BALTIMORE CITY,39.352302514,-76.662090147,NON-PROFIT,467,Y
UNIVERSITY OF MARYLAND MEDICAL CENTER,22 S GREENE ST,BALTIMORE,MD,21201,GENERAL ACUTE CARE,OPEN,800,BALTIMORE CITY,39.287908572,-76.624925928,NON-PROFIT,800,Y
ST. JAMES HOSPITAL,411 CANISTEO ST,HORNELL,NY,14843,GENERAL ACUTE CARE,OPEN,15,STEUBEN,42.3138732730001,-77.6606131039999,NON-PROFIT,15,Y
JOHNS HOPKINS BAYVIEW MEDICAL CENTER,4940 EASTERN AVENUE,BALTIMORE,MD,21224,GENERAL ACUTE CARE,OPEN,477,BALTIMORE CITY,39.2906788110001,-76.5467781899999,NON-PROFIT,477,Y
VALLEY REGIONAL HOSPITAL,243 ELM STREET,CLAREMONT,NH,3743,GENERAL ACUTE CARE,OPEN,25,SULLIVAN,43.38458975,-72.340696706,NON-PROFIT,25,Y
HAMPSTEAD HOSPITAL,218 EAST ROAD,HAMPSTEAD,NH,3841,PSYCHIATRIC,OPEN,111,ROCKINGHAM,42.8716633350001,-71.1542070789999,PROPRIETARY,111,N
FRISBIE MEMORIAL HOSPITAL,11 WHITEHALL ROAD,ROCHESTER,NH,3867,GENERAL ACUTE CARE,OPEN,112,STRAFFORD,43.297556596,-70.96016086,NON-PROFIT,112,N
CROTCHED MOUNTAIN REHABILITATION CENTER,1 VERNEY DRIVE,GREENFIELD,NH,3047,REHABILITATION,OPEN,62,HILLSBOROUGH,42.9718711,-71.874535911,NON-PROFIT,62,N
SOUTHERN NEW HAMPSHIRE MEDICAL CENTER,8 PROSPECT STREET,NASHUA,NH,3060,GENERAL ACUTE CARE,OPEN,188,HILLSBOROUGH,42.7562798370001,-71.461374699,NON-PROFIT,188,Y
ST JOSEPH HOSPITAL,172 KINSLEY ST,NASHUA,NH,3061,GENERAL ACUTE CARE,OPEN,208,HILLSBOROUGH,42.749239109,-71.4802120539999,NON-PROFIT,208,N
ELLIOT HOSPITAL CITY OF MANCHESTER,ONE ELLIOT WAY,MANCHESTER,NH,3103,GENERAL ACUTE CARE,OPEN,296,HILLSBOROUGH,42.983954,-71.438,NON-PROFIT,296,Y
CONCORD HOSPITAL,250 PLEASANT STREET,CONCORD,NH,3301,GENERAL ACUTE CARE,OPEN,295,MERRIMACK,43.1977441440001,-71.5620204049999,NON-PROFIT,295,Y
FRANKLIN REGIONAL HOSPITAL,15 AIKEN AVE,FRANKLIN,NH,3235,GENERAL ACUTE CARE,OPEN,25,MERRIMACK,43.448404259,-71.644552725,NON-PROFIT,25,Y
UNIVERSITY HOSPITAL STONEY BROOK SOUTHAMPTON HOSPITAL,240 MEETING HOUSE LANE,SOUTHAMPTON,NY,11968,GENERAL ACUTE CARE,OPEN,125,SUFFOLK,40.885059735,-72.379944064,NON-PROFIT,125,N
EASTERN LONG ISLAND HOSPITAL,201 MANOR PL,GREENPORT,NY,11901,GENERAL ACUTE CARE,OPEN,90,SUFFOLK,41.1103605700001,-72.3611273189999,NON-PROFIT,90,Y
HUNTINGTON HOSPITAL,270 PARK AVE,HUNTINGTON,NY,11743,GENERAL ACUTE CARE,OPEN,408,SUFFOLK,40.8793292410001,-73.416199532,NON-PROFIT,408,N
SOUTHSIDE HOSPITAL,301 E MAIN ST,BAY SHORE,NY,11706,GENERAL ACUTE CARE,OPEN,321,SUFFOLK,40.7259601480001,-73.2411586379999,NON-PROFIT,321,Y
SAINT JOSEPH HOSPITAL,ONE ST JOSEPH DRIVE,LEXINGTON,KY,40504,GENERAL ACUTE CARE,OPEN,433,FAYETTE,38.032339732,-84.52329929,NON-PROFIT,433,Y
SHRINERS HOSPITAL FOR CHILDREN,1900 RICHMOND RD,LEXINGTON,KY,40502,CHILDREN,CLOSED,50,FAYETTE,38.0227066090001,-84.472698523,NON-PROFIT,50,N
GOOD SAMARITAN HOSPITAL - WEST ISLIP,1000 MONTAUK HIGHWAY,WEST ISLIP,NY,10901,GENERAL ACUTE CARE,OPEN,437,SUFFOLK,40.693880129,-73.294394616,NON-PROFIT,437,Y
HEALTHALLIANCE HOSPITAL - BROADWAY CAMPUS,396 BROADWAY,KINGSTON,NY,12401,GENERAL ACUTE CARE,OPEN,150,ULSTER,41.926658407,-73.994842067,NON-PROFIT,150,N
ELLENVILLE REGIONAL HOSPITAL,10 HEALTHY WAY,ELLENVILLE,NY,12428,CRITICAL ACCESS,OPEN,25,ULSTER,41.7326297920001,-74.379034975,NON-PROFIT,25,Y
NEWARK-WAYNE COMMUNITY HOSPITAL,1200 DRIVING PARK AVE BOX 111,NEWARK,NY,14513,GENERAL ACUTE CARE,OPEN,120,WAYNE,43.060499378,-77.101669912,NON-PROFIT,120,Y
ST. JOHN'S RIVERSIDE HOSPITAL - DOBBS FERRY,128 ASHFORD AVE,DOBBS FERRY,NY,10522,GENERAL ACUTE CARE,OPEN,12,WESTCHESTER,41.014392248,-73.861919649,NON-PROFIT,12,N
PHELPS MEMORIAL HOSPITAL CENTER,701 NORTH BROADWAY,SLEEPY HOLLOW,NY,10591,GENERAL ACUTE CARE,OPEN,238,WESTCHESTER,41.1090070550001,-73.8630877639999,NON-PROFIT,238,N
TWIN LAKES REGIONAL MEDICAL CENTER,910 WALLACE AVENUE,LEITCHFIELD,KY,42754,GENERAL ACUTE CARE,OPEN,75,GRAYSON,37.4725153040001,-86.288593089,NON-PROFIT,75,Y
OUR LADY OF BELLEFONTE HOSPITAL,1000 ST. CHRISTOPHER DRIVE,ASHLAND,KY,41101,GENERAL ACUTE CARE,OPEN,190,GREENUP,38.5084543190001,-82.692616508,NON-PROFIT,190,N
BLYTHEDALE CHILDREN'S HOSPITAL,95 BRADHURST AVE,VALHALLA,NY,10595,CHILDREN,OPEN,86,WESTCHESTER,41.0748475410001,-73.799972237,NON-PROFIT,86,N
PASSAVANT AREA HOSPITAL,1600 W WALNUT ST,JACKSONVILLE,IL,62650,GENERAL ACUTE CARE,OPEN,108,MORGAN,39.7460849930001,-90.2604866359999,NON-PROFIT,108,Y
BROOK LANE HEALTH SERVICES,13121 BROOK LANE DRIVE,HAGERSTOWN,MD,21742,PSYCHIATRIC,OPEN,65,WASHINGTON,39.676995295,-77.6105994,NON-PROFIT,65,N
WESTCHESTER MEDICAL CENTER,100 WOODS RD,VALHALLA,NY,10532,GENERAL ACUTE CARE,OPEN,652,WESTCHESTER,41.0860907520001,-73.8049547749999,GOVERNMENT - DISTRICT/AUTHORITY,652,Y
MONTEFIORE MEDICAL CENTER - MOSES DIVISION,111 E 210TH ST,BRONX,NY,10466,GENERAL ACUTE CARE,OPEN,779,BRONX,40.880079256,-73.879826699,NON-PROFIT,779,N
FRANKFORT REGIONAL MEDICAL CENTER,299 KINGS DAUGHTERS DRIVE,FRANKFORT,KY,40601,LONG TERM CARE,OPEN,173,FRANKLIN,38.160661745,-84.906893698,PROPRIETARY,173,Y
NORTH CENTRAL BRONX HOSPITAL,3424 KOSSUTH AVE,BRONX,NY,10467,GENERAL ACUTE CARE,OPEN,213,BRONX,40.8803656010001,-73.881057106,GOVERNMENT - LOCAL,213,N
MERITUS MEDICAL CENTER,11116 MEDICAL CAMPUS ROAD,HAGERSTOWN,MD,21742,GENERAL ACUTE CARE,OPEN,247,WASHINGTON,39.622192811,-77.682562947,NON-PROFIT,247,Y
BROOKDALE HOSPITAL MEDICAL CENTER,1 BROOKDALE PLAZA,BROOKLYN,NY,11212,GENERAL ACUTE CARE,OPEN,530,KINGS,40.655269102,-73.9125565319999,NON-PROFIT,530,N
BROOKLYN HOSPITAL CENTER,121 DEKALB AVE,BROOKLYN,NY,11201,GENERAL ACUTE CARE,OPEN,464,KINGS,40.6905725080001,-73.9778837649999,NON-PROFIT,464,N
MONTEFIORE WESTCHESTER SQUARE MEDICAL CENTER,2475 RAYMOND AVENUE,BRONX,NY,10461,GENERAL ACUTE CARE,CLOSED,-999,BRONX,40.8407431110001,-73.848517531,NON-PROFIT,-999,N
KINGS COUNTY HOSPITAL CENTER,451 CLARKSON AVE,BROOKLYN,NY,11203,GENERAL ACUTE CARE,OPEN,639,KINGS,40.656616381,-73.94469079,GOVERNMENT - LOCAL,639,N
CONEY ISLAND HOSPITAL,2601 OCEAN PARKWAY,BROOKLYN,NY,11235,GENERAL ACUTE CARE,OPEN,371,KINGS,40.5854143810001,-73.9653324339999,GOVERNMENT - LOCAL,371,N
NYU LUTHERAN MEDICAL CENTER,150 55TH ST,BROOKLYN,NY,11209,GENERAL ACUTE CARE,OPEN,396,KINGS,40.6465639940001,-74.020914692,NON-PROFIT,396,N
JACOBI MEDICAL CENTER,1400 PELHAM PARKWAY SOUTH,BRONX,NY,10036,GENERAL ACUTE CARE,OPEN,457,BRONX,40.8562983570001,-73.847512147,GOVERNMENT - LOCAL,457,Y
NEW YORK METHODIST HOSPITAL,506 6TH ST,BROOKLYN,NY,11215,GENERAL ACUTE CARE,OPEN,591,KINGS,40.6677617010001,-73.978990521,NON-PROFIT,591,N
NYU HOSPITAL FOR JOINT DISEASES,301 E 17TH ST,NEW YORK,NY,10003,GENERAL ACUTE CARE,OPEN,225,NEW YORK,40.734431687,-73.982999962,NON-PROFIT,225,N
NEW YORK PRESBYTERIAN MORGAN STANLEY CHILDREN'S HOSPITAL,3959 BROADWAY,NEW YORK,NY,10032,CHILDREN,OPEN,190,NEW YORK,40.8397632590001,-73.941282577,NON-PROFIT,190,N
THE ADDICTION INSTITUTE OF NEW YORK,1000 10TH AVE,NEW YORK,NY,10019,PSYCHIATRIC,CLOSED,-999,NEW YORK,40.76941213,-73.986808395,NON-PROFIT,-999,N
ELMHURST HOSPITAL CENTER,79-01 BROADWAY,ELMHURST,NY,11373,GENERAL ACUTE CARE,OPEN,551,QUEENS,40.7448273630001,-73.886079665,GOVERNMENT - LOCAL,551,N
JAMAICA HOSPITAL MEDICAL CENTER,8900 VAN WYCK EXPRESSWAY,JAMAICA,NY,11414,GENERAL ACUTE CARE,OPEN,408,QUEENS,40.700103647,-73.816114892,NON-PROFIT,408,N
HOOPESTON COMMUNITY MEMORIAL HOSPITAL - DBA CARLE HOOPESTON REGIONAL HEALTH CENTER,701 EAST ORANGE STREET,HOOPESTON,IL,60942,CRITICAL ACCESS,OPEN,99,VERMILION,40.4586898920001,-87.6597332709999,NON-PROFIT,99,Y
OSF HEALTHCARE SYSTEM - DBA OSF SACRED HEART MEDICAL CENTER,812 NORTH LOGAN AVENUE,DANVILLE,IL,61832,GENERAL ACUTE CARE,OPEN,127,VERMILION,40.137832453,-87.6454332439999,NON-PROFIT,127,Y
THE MEDICAL CENTER AT BOWLING GREEN,250 PARK STREET,BOWLING GREEN,KY,42101,GENERAL ACUTE CARE,OPEN,337,WARREN,36.9959715050001,-86.42975938,NON-PROFIT,337,Y
NEW YORK PRESBYTERIAN QUEENS,56 45 MAIN ST,FLUSHING,NY,11355,GENERAL ACUTE CARE,OPEN,519,QUEENS,40.7467722760001,-73.8254163829999,NON-PROFIT,519,N
"ROCK REGIONAL HOSPITAL, LLC",3251 N ROCK RD,DERBY,KS,67037,LONG TERM CARE,OPEN,31,SEDGWICK,37.5827716790001,-97.2469857139999,NOT AVAILABLE,31,N
GLEN COVE HOSPITAL,101 ST ANDREWS LANE,GLEN COVE,NY,11542,GENERAL ACUTE CARE,OPEN,247,NASSAU,40.871001397,-73.622385666,NON-PROFIT,247,N
EPHRAIM MCDOWELL FORT LOGAN HOSPITAL,110 METKER TRAIL,STANFORD,KY,40484,CRITICAL ACCESS,OPEN,25,LINCOLN,37.54279432,-84.653036559,NON-PROFIT,25,Y
LIVINGSTON HOSPITAL AND HEALTHCARE SERVICES,131 HOSPITAL DRIVE,SALEM,KY,42078,CRITICAL ACCESS,OPEN,25,LIVINGSTON,37.2630531890001,-88.228502459,NON-PROFIT,25,Y
MONTEFIORE NEW ROCHELLE HOSPITAL,16 GUION PLACE,NEW ROCHELLE,NY,10802,GENERAL ACUTE CARE,OPEN,23,WESTCHESTER,40.912806059,-73.7877626009999,NON-PROFIT,23,N
MOUNT SINAI BETH ISRAEL BROOKLYN,3201 KINGS HIGHWAY,BROOKLYN,NY,11234,GENERAL ACUTE CARE,OPEN,212,KINGS,40.6188201030001,-73.94290124,NON-PROFIT,212,N
NEW YORK PRESBYTERIAN HOSPITAL - WESTCHESTER DIVISION,21 BLOOMINGDALE ROAD,WHITE PLAINS,NY,10605,PSYCHIATRIC,OPEN,270,WESTCHESTER,41.0275795110001,-73.7539098829999,NON-PROFIT,270,N
HARLEM HOSPITAL CENTER,506 LENOX AVENUE,NEW YORK,NY,10037,GENERAL ACUTE CARE,OPEN,282,NEW YORK,40.81426493,-73.939861261,GOVERNMENT - LOCAL,282,N
HENRY J. CARTER SPECIALTY HOSPITAL,1752 PARK AVENUE,NEW YORK,NY,10035,LONG TERM CARE,OPEN,201,NEW YORK,40.80328511,-73.9416238539999,NOT AVAILABLE,201,N
SAINT BARNABAS HOSPITAL HEALTH SYSTEM,4422 THIRD AVENUE,BRONX,NY,10457,GENERAL ACUTE CARE,OPEN,461,BRONX,40.852689006,-73.891362876,NON-PROFIT,461,N
IRA DAVENPORT MEMORIAL HOSPITAL INC,7571 STATE ROUTE 54,BATH,NY,14810,GENERAL ACUTE CARE,OPEN,35,STEUBEN,42.3743292,-77.278906628,NON-PROFIT,35,Y
ST. MARY'S HEALTHCARE - AMSTERDAM MEMORIAL CAMPUS,4988 STHWY 30,AMSTERDAM,NY,12010,GENERAL ACUTE CARE,OPEN,10,MONTGOMERY,42.959065174,-74.187122925,NON-PROFIT,10,Y
THE BURDETT CARE CENTER,2215 BURDETT AVENUE,TROY,NY,12180,WOMEN,OPEN,15,RENSSELAER,42.733357751,-73.672666077,NON-PROFIT,15,N
MORRIS HOSPITAL & HEALTHCARE CENTERS,150 W HIGH ST,MORRIS,IL,60450,GENERAL ACUTE CARE,OPEN,89,GRUNDY,41.3693259020001,-88.426753306,NON-PROFIT,89,Y
SWEDISH AMERICAN HOSPITAL,1401 EAST STATE STREET,ROCKFORD,IL,61104,GENERAL ACUTE CARE,OPEN,325,WINNEBAGO,42.265674877,-89.0741395379999,NON-PROFIT,325,Y
JAVON BEA HOSPITAL DBA MERCY HEALTH HOSPITAL ROCKTON AVE,2400 NORTH ROCKTON AVENUE,ROCKFORD,IL,61101,GENERAL ACUTE CARE,OPEN,297,WINNEBAGO,42.298427168,-89.098441351,NON-PROFIT,297,Y
THE UNIVERSITY OF VERMONT HEALTH NETWORK - CHAMPLAIN VALLEY PHYSICIANS HOSPITAL,75 BEEKMAN ST,PLATTSBURGH,NY,12901,GENERAL ACUTE CARE,OPEN,300,CLINTON,44.7004430440001,-73.469419865,NON-PROFIT,300,Y
MONTEFIORE MEDICAL CENTER-WAKEFIELD HOSPITAL,600 EAST 233RD STREET,BRONX,NY,10466,GENERAL ACUTE CARE,OPEN,325,BRONX,40.893697171,-73.861191189,NON-PROFIT,325,N
HOLY CROSS HOSPITAL,1500 FOREST GLEN ROAD,SILVER SPRING,MD,20910,GENERAL ACUTE CARE,OPEN,409,MONTGOMERY,39.0147221440001,-77.035735227,NON-PROFIT,409,N
SILVER CROSS HOSPITAL AND MEDICAL CENTERS,1900 SILVER CROSS BLVD,NEW LENOX,IL,60451,GENERAL ACUTE CARE,OPEN,289,WILL,41.54468733,-87.98343597,NON-PROFIT,289,Y
ADVENTIST BOLINGBROOK HOSPITAL,500 REMINGTON BOULEVARD,BOLINGBROOK,IL,60440,GENERAL ACUTE CARE,OPEN,148,WILL,41.6808649600001,-88.0846514409999,NON-PROFIT,148,Y
ADVENTIST HEALTHCARE FORT WASHINGTON MEDICAL CTR,11711 LIVINGSTON ROAD,FORT WASHINGTON,MD,20744,GENERAL ACUTE CARE,OPEN,37,PRINCE GEORGE'S,38.728563368,-76.9927016889999,NON-PROFIT,37,Y
MOUNT SINAI ST. LUKE'S,1111 AMSTERDAM AVENUE,NEW YORK,NY,10025,GENERAL ACUTE CARE,OPEN,495,NEW YORK,40.804922543,-73.961590352,NON-PROFIT,495,N
NEW YORK PRESBYTERIAN HOSPITAL - COLUMBIA PRESBYTERIAN CENTER,622 WEST 168TH STREET,NEW YORK,NY,10032,GENERAL ACUTE CARE,OPEN,1007,NEW YORK,40.841052882,-73.940686522,NON-PROFIT,1007,N
NEW YORK PRESBYTERIAN HOSPITAL - NEW YORK WEILL CORNELL CENTER,525 EAST 68TH STREET,NEW YORK,NY,10021,GENERAL ACUTE CARE,OPEN,862,NEW YORK,40.7645499400001,-73.954332262,NON-PROFIT,862,N
NYULMC - COBBLE HILL,83 AMITY STREET,BROOKLYN,NY,11201,GENERAL ACUTE CARE,CLOSED,-999,KINGS,40.6898734210001,-73.997765714,NON-PROFIT,-999,N
URMC STRONG WEST,156 WEST AVENUE,BROCKPORT,NY,14420,GENERAL ACUTE CARE,OPEN,-999,MONROE,43.221611782,-77.944575109,NON-PROFIT,-999,N
WOMEN AND CHILDREN'S HOSPITAL OF BUFFALO,219 BRYANT STREET,BUFFALO,NY,14222,CHILDREN,OPEN,200,ERIE,42.9092085090001,-78.8752090149999,NON-PROFIT,200,Y
NYU WINTHROP-UNIVERSITY HOSPITAL,259 FIRST STREET,MINEOLA,NY,11501,GENERAL ACUTE CARE,OPEN,591,NASSAU,40.7406974780001,-73.6430083989999,GOVERNMENT - STATE,591,N
UPMC CHAUTAUQUA AT WCA,51 GLASGOW AVENUE,JAMESTOWN,NY,14701,PSYCHIATRIC,OPEN,40,CHAUTAUQUA,42.0911672400001,-79.245365836,NON-PROFIT,40,N
SJRH - PARK CARE PAVILION,2 PARK AVENUE,YONKERS,NY,10703,PSYCHIATRIC,OPEN,141,WESTCHESTER,40.9403860690001,-73.8916523939999,NON-PROFIT,141,N
VA MEDICAL CENTER - CANANDAIGUA,400 FORT HILL AVE,CANANDAIGUA,NY,14424,MILITARY,OPEN,-999,ONTARIO,42.9012374390001,-77.2696360639999,GOVERNMENT - FEDERAL,-999,N
FOUR WINDS HOSPITAL WESTCHESTER,800 CROSS RIVER ROAD,KATONAH,NY,10536,PSYCHIATRIC,OPEN,178,WESTCHESTER,41.2663913170001,-73.620717514,PROPRIETARY,178,N
FOUR WINDS HOSPITAL SARATOGA,30 CRESCENT AVENUE,SARATOGA SPRINGS,NY,12866,PSYCHIATRIC,OPEN,88,SARATOGA,43.058130469,-73.78539606,PROPRIETARY,88,N
METHODIST HOSPITAL,1305 N ELM STREET,HENDERSON,KY,42420,GENERAL ACUTE CARE,OPEN,192,HENDERSON,37.854974612,-87.583199016,NON-PROFIT,192,Y
CROSSROADS COMMUNITY HOSPITAL,8 DOCTORS PARK ROAD,MOUNT VERNON,IL,62864,GENERAL ACUTE CARE,OPEN,41,JEFFERSON,38.3116451610001,-88.93688084,PROPRIETARY,41,Y
COPLEY MEMORIAL HOSPITAL INC - DBA RUSH COPLEY MEDICAL CENTER,2000 OGDEN AVENUE,AURORA,IL,60504,GENERAL ACUTE CARE,OPEN,210,KANE,41.7290071840001,-88.270615983,GOVERNMENT - LOCAL,210,Y
DELNOR COMMUNITY HOSPITAL,300 RANDALL RD,GENEVA,IL,60134,GENERAL ACUTE CARE,OPEN,159,KANE,41.886614965,-88.343450363,NON-PROFIT,159,Y
PRESENCE CENTRAL AND SUBURBAN HOSPITALS NETWORK DBA PRESENCE MERCY MEDICAL CENTER,1325 N HIGHLAND AVENUE,AURORA,IL,60506,GENERAL ACUTE CARE,OPEN,293,KANE,41.7858095500001,-88.325769044,NON-PROFIT,293,Y
BLUEGRASS COMMUNITY HOSPITAL,360 AMSDEN AVE.,VERSAILLES,KY,40383,GENERAL ACUTE CARE,OPEN,25,WOODFORD,38.0547656890001,-84.7237883399999,NON-PROFIT,25,Y
JAMES J. PETERS VA MEDICAL CENTER,130 W KINGSBRIDGE RD,BRONX,NY,10468,MILITARY,OPEN,311,BRONX,40.867348658,-73.906382086,GOVERNMENT - FEDERAL,311,N
HEART OF TEXAS HEALTHCARE SYSTEM,2008 NINE RD,BRADY,TX,76825,CRITICAL ACCESS,OPEN,25,MCCULLOCH,31.1176884980001,-99.346853612,NON-PROFIT,25,Y
JACKSON COUNTY HOSPITAL,1013 SOUTH WELLS STREET,EDNA,TX,77957,CRITICAL ACCESS,OPEN,25,JACKSON,28.9691047490001,-96.63588688,GOVERNMENT - DISTRICT/AUTHORITY,25,Y
SCHLEICHER COUNTY MEDICAL CENTER,400 MURCHISON AVENUE,ELDORADO,TX,76936,CRITICAL ACCESS,OPEN,14,SCHLEICHER,30.863001943,-100.60299406,PROPRIETARY,14,Y
TAYLOR REGIONAL HOSPITAL,1700 OLD LEBANON ROAD,CAMPBELLSVILLE,KY,42718,GENERAL ACUTE CARE,OPEN,90,TAYLOR,37.3663517620001,-85.338106556,GOVERNMENT - DISTRICT/AUTHORITY,90,Y
COCHRAN MEMORIAL HOSPITAL,201 EAST GRANT AVENUE,MORTON,TX,79346,CRITICAL ACCESS,OPEN,18,COCHRAN,33.7197375100001,-102.757522271,GOVERNMENT - DISTRICT/AUTHORITY,18,N
UPMC WESTERN MARYLAND,12500 WILLOWBROOK ROAD,CUMBERLAND,MD,21502,GENERAL ACUTE CARE,OPEN,371,ALLEGANY,39.6478306720001,-78.733241499,NON-PROFIT,371,Y
ANNE ARUNDEL MEDICAL CENTER,2001 MEDICAL PARKWAY,ANNAPOLIS,MD,21401,GENERAL ACUTE CARE,OPEN,380,ANNE ARUNDEL,38.98992672,-76.534612433,NON-PROFIT,380,Y
KIRBY MEDICAL CENTER,1000 MEDICAL CENTER DRIVE,MONTICELLO,IL,61856,CRITICAL ACCESS,OPEN,16,PIATT,40.06044805,-88.558821704,NON-PROFIT,16,Y
SAINT FRANCIS MEDICAL CENTER,530 NE GLEN OAK AVE,PEORIA,IL,61603,GENERAL ACUTE CARE,OPEN,631,PEORIA,40.702746817,-89.591965425,NON-PROFIT,631,Y
BLESSING CARE CORPORATION ILLINI COMMUNITY HOSPITAL,640 W WASHINGTON,PITTSFIELD,IL,62363,CRITICAL ACCESS,OPEN,21,PIKE,39.6074434780001,-90.815132697,NON-PROFIT,21,Y
MUSCOGEE (CREEK) NATION PHYSICAL REHABILITATION CENTER,900 EAST AIRPORT ROAD,OKMULGEE,OK,74447,REHABILITATION,OPEN,26,OKMULGEE,35.6675323540001,-95.960331813,GOVERNMENT - FEDERAL,26,N
BLESSING HOSPITAL,BROADWAY AT 11TH STREET,QUINCY,IL,62301,GENERAL ACUTE CARE,OPEN,335,ADAMS,39.936358882,-91.399457202,NON-PROFIT,335,Y
VALIR REHABILITATION HOSPITAL OF OKC,700 NW SEVENTH STREET,OKLAHOMA CITY,OK,73102,REHABILITATION,OPEN,50,OKLAHOMA,35.474896238,-97.5249415819999,PROPRIETARY,50,N
METHODIST MEDICAL CENTER OF ILLINOIS,221 N E GLEN OAK AVE,PEORIA,IL,61606,GENERAL ACUTE CARE,OPEN,269,PEORIA,40.7003057960001,-89.594916836,NON-PROFIT,269,Y
REHABILITATION INSTITUTE OF CHICAGO,345 EAST SUPERIOR STREET,CHICAGO,IL,60611,REHABILITATION,OPEN,182,COOK,41.895454536,-87.618334799,NON-PROFIT,182,N
RIVEREDGE HOSPITAL,8311 WEST ROOSEVELT ROAD,FOREST PARK,IL,60130,PSYCHIATRIC,OPEN,224,COOK,41.864893065,-87.828282507,PROPRIETARY,224,N
NORTHSHORE UNIVERSITY HEALTH SYSTEM SKOKIE HOSPITAL,9600 GROSS POINT ROAD,SKOKIE,IL,60076,GENERAL ACUTE CARE,OPEN,234,COOK,42.056416062,-87.7407096109999,NON-PROFIT,234,N
RUSH OAK PARK HOSPITAL,520 S MAPLE AVE,OAK PARK,IL,60304,GENERAL ACUTE CARE,OPEN,114,COOK,41.878618014,-87.803351533,NON-PROFIT,114,N
ADVENTIST MIDWEST HEALTH DBA ADVENTIST LA GRANGE MEMORIAL HOSPITAL,5101 S WILLOW SPRINGS RD,LA GRANGE,IL,60525,GENERAL ACUTE CARE,OPEN,187,COOK,41.7970605520001,-87.886394926,NON-PROFIT,187,Y
GOTTLIEB MEMORIAL HOSPITAL - DBA LOYOLA HEALTH SYSTEM AT GOTTLIEB,701 WEST NORTH AVE,MELROSE PARK,IL,60160,GENERAL ACUTE CARE,OPEN,255,COOK,41.910529781,-87.842815074,NON-PROFIT,255,Y
CHRISTUS MOTHER FRANCES HOSPITAL - WINNSBORO,719 WEST COKE ROAD,WINNSBORO,TX,75494,CRITICAL ACCESS,OPEN,25,WOOD,32.9445383180001,-95.307279633,NON-PROFIT,25,Y
YOAKUM COMMUNITY HOSPITAL,1200 CARL RAMERT DRIVE,YOAKUM,TX,77995,CRITICAL ACCESS,OPEN,25,LAVACA,29.30695852,-97.129159089,NON-PROFIT,25,Y
LORETTO HOSPITAL,645 SOUTH CENTRAL AVE,CHICAGO,IL,60644,GENERAL ACUTE CARE,OPEN,176,COOK,41.8721245730001,-87.76408865,NON-PROFIT,176,N
THE UNIVERSITY OF CHICAGO MEDICAL CENTER,5841 SOUTH MARYLAND,CHICAGO,IL,60637,GENERAL ACUTE CARE,OPEN,577,COOK,41.788746851,-87.604337126,NON-PROFIT,577,Y
GOLDEN PLAINS COMMUNITY HOSPITAL,100 MEDICAL DRIVE,BORGER,TX,79007,CRITICAL ACCESS,OPEN,25,HUTCHINSON,35.655138191,-101.409180667,PROPRIETARY,25,Y
THOREK MEMORIAL HOSPITAL,850 W IRVING PARK RD,CHICAGO,IL,60613,GENERAL ACUTE CARE,OPEN,134,COOK,41.9551890160001,-87.6516212399999,NON-PROFIT,134,N
JOHN H. STROGER JR. HOSPITAL OF COOK COUNTY,1901 W HARRISON ST,CHICAGO,IL,60612,GENERAL ACUTE CARE,OPEN,460,COOK,41.8723348670001,-87.674398458,GOVERNMENT - LOCAL,460,Y
MERCY HOSPITAL AND MEDICAL CENTER,2525 S MICHIGAN AVE,CHICAGO,IL,60616,GENERAL ACUTE CARE,OPEN,421,COOK,41.8468895830001,-87.621491598,NON-PROFIT,421,N
OSF LITTLE COMPANY OF MARY MEDICAL CENTER,2800 W 95TH ST,EVERGREEN PARK,IL,60805,GENERAL ACUTE CARE,OPEN,288,COOK,41.721464999,-87.693028878,NON-PROFIT,288,N
ADVOCATE NORTHSIDE HEALTH NETWORK - DBA ILLINOIS MASONIC MEDICAL CENTER CAMPUS,836 WEST WELLINGTON AVENUE,CHICAGO,IL,60657,GENERAL ACUTE CARE,OPEN,330,COOK,41.9367408480001,-87.651371663,NON-PROFIT,330,N
THOREK MEMORIAL HOSPITAL - DBA METHODIST HOSPITAL OF CHICAGO,5025 N PAULINA STREET,CHICAGO,IL,60640,GENERAL ACUTE CARE,OPEN,189,COOK,41.973086773,-87.670743057,NON-PROFIT,189,N
ADVOCATE CHRIST HOSPITAL & MEDICAL CENTER,4440 W 95TH STREET,OAK LAWN,IL,60453,GENERAL ACUTE CARE,OPEN,684,COOK,41.7216945170001,-87.732442245,NON-PROFIT,684,Y
LUTHERAN GENERAL HOSPITAL - ADVOCATE,1775 DEMPSTER ST,PARK RIDGE,IL,60068,GENERAL ACUTE CARE,OPEN,624,COOK,42.038802226,-87.847334384,NON-PROFIT,624,Y
NORTHWEST COMMUNITY HOSPITAL,800 W CENTRAL ROAD,ARLINGTON HEIGHTS,IL,60005,GENERAL ACUTE CARE,OPEN,386,COOK,42.0682911060001,-87.992181634,NON-PROFIT,386,Y
ALEXIAN BROTHERS MEDICAL CENTER,800 W BIESTERFIELD RD,ELK GROVE VILLAGE,IL,60007,GENERAL ACUTE CARE,OPEN,370,COOK,42.0046568230001,-88.0168922779999,NON-PROFIT,370,Y
NORTHWESTERN MEMORIAL HOSPITAL,251 E HURON ST,CHICAGO,IL,60611,GENERAL ACUTE CARE,OPEN,885,COOK,41.894607713,-87.621024366,NON-PROFIT,885,N
ST ALEXIUS MEDICAL CENTER,1555 N BARRINGTON RD,HOFFMAN ESTATES,IL,60169,GENERAL ACUTE CARE,OPEN,305,COOK,42.052928459,-88.1410342249999,NON-PROFIT,305,Y
PROVIDENT HOSPITAL OF COOK COUNTY,500 E 51ST ST,CHICAGO,IL,60615,GENERAL ACUTE CARE,OPEN,25,COOK,41.8026750130001,-87.613323872,GOVERNMENT - LOCAL,25,N
RUSSELL COUNTY HOSPITAL,"153 DOWELL RD., PO BOX 1610",RUSSELL SPRINGS,KY,42642,GENERAL ACUTE CARE,OPEN,25,RUSSELL,37.05758045,-85.067352806,GOVERNMENT - LOCAL,25,Y
RALEIGH GENERAL HOSPITAL,1710 HARPER ROAD,BECKLEY,WV,25801,GENERAL ACUTE CARE,OPEN,300,RALEIGH,37.787554395,-81.201931585,PROPRIETARY,300,Y
ROCKCASTLE REGIONAL HOSPITAL & RESPIRATORY CARE CENTER,145 NEWCOMB AVE,MT VERNON,KY,40456,GENERAL ACUTE CARE,OPEN,26,ROCKCASTLE,37.3579643200001,-84.3359033199999,NON-PROFIT,26,Y
UNION HOSPITAL OF CECIL COUNTY,106 BOW STREET,ELKTON,MD,21921,GENERAL ACUTE CARE,OPEN,122,CECIL,39.608514525,-75.831967046,NON-PROFIT,122,N
BAPTIST HEALTH LOUISVILLE,4000 KRESGE WAY,LOUISVILLE,KY,40207,GENERAL ACUTE CARE,OPEN,519,JEFFERSON,38.238118248,-85.637144295,NON-PROFIT,519,Y
UOFL HEALTH - JEWISH HOSPITAL,200 ABRAHAM FLEXNER WAY,LOUISVILLE,KY,40202,GENERAL ACUTE CARE,OPEN,462,JEFFERSON,38.2491316470001,-85.751189499,PROPRIETARY,462,Y
KINDRED HOSPITAL - LOUISVILLE,1313 SAINT ANTHONY PLACE,LOUISVILLE,KY,40204,LONG TERM CARE,OPEN,337,JEFFERSON,38.2426565160001,-85.731237729,PROPRIETARY,337,N
UOFL HEALTH - PEACE HOSPITAL,2020 NEWBURG RD,LOUISVILLE,KY,40205,PSYCHIATRIC,OPEN,396,JEFFERSON,38.2188090000001,-85.71059213,NON-PROFIT,396,N
UNIVERSITY OF LOUISVILLE HOSPITAL,530 S JACKSON ST,LOUISVILLE,KY,40202,GENERAL ACUTE CARE,OPEN,404,JEFFERSON,38.248322961,-85.7443359649999,NON-PROFIT,404,Y
PAUL B HALL REGIONAL MEDICAL CENTER,625 JAMES S TRIMBLE BLVD,PAINTSVILLE,KY,41240,GENERAL ACUTE CARE,OPEN,72,JOHNSON,37.8155109360001,-82.813051295,PROPRIETARY,72,N
JEFFERSON MEDICAL CENTER,300 SOUTH PRESTON STREET,RANSON,WV,25438,CRITICAL ACCESS,OPEN,25,JEFFERSON,39.2959891360001,-77.858759055,NON-PROFIT,25,Y
PLATEAU MEDICAL CENTER,430 MAIN STREET,OAK HILL,WV,25901,CRITICAL ACCESS,OPEN,25,FAYETTE,37.971276577,-81.149780587,PROPRIETARY,25,N
MINNIE HAMILTON HEALTH CARE CENTER,186 HOSPITAL DRIVE,GRANTSVILLE,WV,26147,CRITICAL ACCESS,OPEN,42,CALHOUN,38.9227600680001,-81.0924929559999,NON-PROFIT,42,Y
ST MARY'S MEDICAL CENTER,2900 1ST AVENUE,HUNTINGTON,WV,25702,GENERAL ACUTE CARE,OPEN,393,CABELL,38.430550451,-82.4004127269999,NON-PROFIT,393,Y
PRINCETON COMMUNITY HOSPITAL,"122 12TH STREET, PO BOX 1369",PRINCETON,WV,24740,GENERAL ACUTE CARE,OPEN,267,MERCER,37.3627189270001,-81.113010848,GOVERNMENT - LOCAL,267,Y
PLEASANT VALLEY HOSPITAL,2520 VALLEY DRIVE,POINT PLEASANT,WV,25550,GENERAL ACUTE CARE,OPEN,201,MASON,38.8690654100001,-82.123223867,NON-PROFIT,201,Y
BOONE MEMORIAL HOSPITAL,701 MADISON AVENUE,MADISON,WV,25130,CRITICAL ACCESS,OPEN,25,BOONE,38.0482000000001,-81.80619,GOVERNMENT - LOCAL,25,N
POCAHONTAS MEMORIAL HOSPITAL,"150 DUNCAN RD, RR BOX 52 WEST",BUCKEYE,WV,24924,CRITICAL ACCESS,OPEN,25,POCAHONTAS,38.2008291170001,-80.108978397,GOVERNMENT - LOCAL,25,Y
PRESTON MEMORIAL HOSPITAL,300 S PRICE STREET,KINGWOOD,WV,26537,CRITICAL ACCESS,CLOSED,25,PRESTON,39.46507784,-79.687857503,NON-PROFIT,25,Y
WILLIAM R SHARPE JR HOSPITAL,936 SHARPE HOSPITAL ROAD,WESTON,WV,26452,PSYCHIATRIC,OPEN,150,LEWIS,39.0411492700001,-80.496304267,GOVERNMENT - STATE,150,N
UNIVERSITY OF KANSAS HOSPITAL TRANSPLANT CENTER,4000 CAMPBRIDGE ST,KANSAS CITY,KS,66160,SPECIAL,OPEN,936,WYANDOTTE,39.055827304,-94.6089825,NOT AVAILABLE,936,N
BERKELEY MEDICAL CENTER,2500 HOSPITAL DRIVE,MARTINSBURG,WV,25401,GENERAL ACUTE CARE,OPEN,195,BERKELEY,39.476243465,-77.9802371769999,NON-PROFIT,195,Y
WEST VIRGINIA UNIVERSITY HOSPITALS,1 MEDICAL CENTER DRIVE,MORGANTOWN,WV,26506,GENERAL ACUTE CARE,OPEN,677,MONONGALIA,39.6544225740001,-79.958022141,NON-PROFIT,677,Y
REYNOLDS MEMORIAL HOSPITAL,800 WHEELING AVE,GLEN DALE,WV,26038,GENERAL ACUTE CARE,OPEN,90,MARSHALL,39.946141927,-80.752437545,NON-PROFIT,90,N
ST ANTHONYS MEMORIAL HOSPITAL,503 N MAPLE STREET,EFFINGHAM,IL,62401,GENERAL ACUTE CARE,OPEN,146,EFFINGHAM,39.1257760170001,-88.5501252189999,NON-PROFIT,146,Y
MEADOWVIEW REGIONAL MEDICAL CENTER,989 MEDICAL PARK DRIVE,MAYSVILLE,KY,41056,GENERAL ACUTE CARE,OPEN,100,MASON,38.6399743760001,-83.808105166,PROPRIETARY,100,Y
ST. ELIZABETH FLORENCE,4900 HOUSTON ROAD,FLORENCE,KY,41042,GENERAL ACUTE CARE,OPEN,231,BOONE,39.0165918180001,-84.630767205,NON-PROFIT,231,Y
"PINEVILLE COMMUNITY HEALTH CENTER, INC",850 RIVERVIEW AVE,PINEVILLE,KY,40977,GENERAL ACUTE CARE,OPEN,120,BELL,36.76291694,-83.707768726,NON-PROFIT,120,Y
GENESIS HEALTH SYSTEM - DBA GENESIS MEDICAL CENTER - SILVIS,801 ILLINI DRIVE,SILVIS,IL,61282,GENERAL ACUTE CARE,OPEN,101,ROCK ISLAND,41.4943257400001,-90.418416114,NON-PROFIT,101,Y
TRINITY MEDICAL CENTER (WEST) - DBA TRINITY ROCK ISLAND,2701 17TH ST,ROCK ISLAND,IL,61201,GENERAL ACUTE CARE,OPEN,343,ROCK ISLAND,41.482615267,-90.570418129,NON-PROFIT,343,Y
MEMORIAL MEDICAL CENTER,701 N FIRST ST,SPRINGFIELD,IL,62702,GENERAL ACUTE CARE,OPEN,473,SANGAMON,39.80936884,-89.6557791019999,NON-PROFIT,473,Y
EPHRAIM MCDOWELL REGIONAL MEDICAL CENTER,217 SOUTH THIRD STREET,DANVILLE,KY,40422,GENERAL ACUTE CARE,OPEN,197,BOYLE,37.6438733050001,-84.773001139,NON-PROFIT,197,N
THE CARLE FOUNDATION HOSPITAL,611 WEST PARK STREET,URBANA,IL,61801,GENERAL ACUTE CARE,OPEN,322,CHAMPAIGN,40.117041763,-88.2149486599999,NON-PROFIT,322,Y
SPOONER HOSPITAL SYS,819 ASH ST,SPOONER,WI,54801,GENERAL ACUTE CARE,CLOSED,25,WASHBURN,45.825597325,-91.896346513,NON-PROFIT,25,Y
SPRING VIEW HOSPITAL,320 LORETTO ROAD,LEBANON,KY,40033,GENERAL ACUTE CARE,OPEN,75,MARION,37.5698288780001,-85.2614564089999,PROPRIETARY,75,Y
OWENSBORO HEALTH MUHLENBERG COMMUNITY HOSPITAL,440 HOPKINSVILLE STREET,GREENVILLE,KY,42345,GENERAL ACUTE CARE,OPEN,90,MUHLENBERG,37.1965353910001,-87.189294499,NON-PROFIT,90,N
HUTCHINGS PSYCHIATRIC CENTER,620 MADISON STREET,SYRACUSE,NY,13210,PSYCHIATRIC,OPEN,154,ONONDAGA,43.045193754,-76.140544451,GOVERNMENT - STATE,154,N
CALDWELL MEDICAL CENTER,100 MEDICAL CENTER DRIVE,PRINCETON,KY,42445,CRITICAL ACCESS,OPEN,25,CALDWELL,37.113674313,-87.909600476,NON-PROFIT,25,Y
T J SAMSON COMMUNITY HOSPITAL,1301 NORTH RACE STREET,GLASGOW,KY,42141,GENERAL ACUTE CARE,OPEN,180,BARREN,37.011392389,-85.9045139739999,NON-PROFIT,180,Y
ROLLING HILLS HOSPITAL,1000 ROLLING HILLS LANE,ADA,OK,74820,PSYCHIATRIC,OPEN,60,PONTOTOC,34.7845956670001,-96.627450782,PROPRIETARY,60,N
FAIRVIEW REGIONAL MEDICAL CENTER,523 EAST STATE ROAD,FAIRVIEW,OK,73737,CRITICAL ACCESS,OPEN,25,MAJOR,36.2759877820001,-98.474523405,GOVERNMENT - DISTRICT/AUTHORITY,25,Y
LATIMER COUNTY GENERAL HOSPITAL,806 HIGHWAY 2 NORTH,WILBURTON,OK,74578,GENERAL ACUTE CARE,OPEN,33,LATIMER,34.91947628,-95.3208557309999,GOVERNMENT - LOCAL,33,Y
MASON DISTRICT HOSPITAL,"615 NORTH PROMENADE STREET, P O BOX 530",HAVANA,IL,62644,CRITICAL ACCESS,OPEN,20,MASON,40.305423138,-90.0540906959999,GOVERNMENT - DISTRICT/AUTHORITY,20,Y
WESTERN STATE HOSPITAL,2400 RUSSELLVILLE ROAD,HOPKINSVILLE,KY,42240,PSYCHIATRIC,OPEN,495,CHRISTIAN,36.864669216,-87.451266717,GOVERNMENT - STATE,495,N
PIKEVILLE MEDICAL CENTER,911 BYPASS RD,PIKEVILLE,KY,41501,GENERAL ACUTE CARE,OPEN,340,PIKE,37.471241666,-82.522247497,NON-PROFIT,340,Y
OU MEDICAL CENTER -THE CHILDREN'S HOSPITAL,1200 CHILDREN'S AVE,OKLAHOMA CITY,OK,73104,CHILDREN,OPEN,314,OKLAHOMA,35.4816532400001,-97.496105013,PROPRIETARY,314,Y
HANS P PETERSON MEMORIAL HOSPITAL,503 WEST PINE STREET,PHILIP,SD,57567,CRITICAL ACCESS,OPEN,18,HAAKON,44.0398087630001,-101.671476777,NON-PROFIT,18,N
MCALESTER REGIONAL HEALTH CENTER,ONE CLARK BASS BOULEVARD,MCALESTER,OK,74501,GENERAL ACUTE CARE,OPEN,149,PITTSBURG,34.9368817440001,-95.750925292,GOVERNMENT - LOCAL,149,Y
OKLAHOMA SPINE HOSPITAL,14101 PARKWAY COMMONS DRIVE,OKLAHOMA CITY,OK,73134,SPECIAL,OPEN,25,OKLAHOMA,35.6145013180001,-97.5832999959999,PROPRIETARY,25,N
ST JOSEPH MEDICAL CENTER,2200 E WASHINGTON,BLOOMINGTON,IL,61701,GENERAL ACUTE CARE,OPEN,149,MCLEAN,40.4826765880001,-88.955562196,NON-PROFIT,149,Y
HAZARD ARH REGIONAL MEDICAL CENTER,100 MEDICAL CENTER DRIVE,HAZARD,KY,41701,GENERAL ACUTE CARE,OPEN,358,PERRY,37.2782979460001,-83.227882237,NON-PROFIT,358,Y
TUG VALLEY ARH REGIONAL MEDICAL CENTER,260 HOSPITAL DRIVE,SOUTH WILLIAMSON,KY,41503,GENERAL ACUTE CARE,OPEN,113,PIKE,37.6765106440001,-82.297022722,NON-PROFIT,113,Y
DECATUR MEMORIAL HOSPITAL,2300 NORTH EDWARD STREET,DECATUR,IL,62526,GENERAL ACUTE CARE,OPEN,188,MACON,39.8672533980001,-88.960982947,NON-PROFIT,188,Y
NORTHWESTERN MEDICINE MCHENRY HOSPITAL,4201 MEDICAL CENTER DRIVE,MCHENRY,IL,60050,GENERAL ACUTE CARE,OPEN,173,MCHENRY,42.31779814,-88.279468003,NON-PROFIT,173,Y
ADVOCATE HEALTH AND HOSPITALS CORPORATION - DBA ADVOCATE BROMENN MEDICAL CENTER,1304 FRANKLIN AVENUE,NORMAL,IL,61761,GENERAL ACUTE CARE,OPEN,200,MCLEAN,40.496970979,-88.9908500019999,NON-PROFIT,200,Y
MEMORIAL HOSPITAL,3073 WHITE MOUNTAIN HIGHWAY,NORTH CONWAY,NH,3860,GENERAL ACUTE CARE,OPEN,25,CARROLL,44.061812687,-71.136853803,GOVERNMENT - LOCAL,25,Y
CHESHIRE MEDICAL CENTER,580 COURT STREET,KEENE,NH,3431,GENERAL ACUTE CARE,OPEN,169,CHESHIRE,42.9488432030001,-72.2919009,NON-PROFIT,169,Y
LITTLETON REGIONAL HEALTHCARE,600 ST. JOHNSBURY ROAD,LITTLETON,NH,3561,GENERAL ACUTE CARE,OPEN,25,GRAFTON,44.317933877,-71.825559036,NON-PROFIT,25,Y
ALICE PECK DAY MEMORIAL HOSPITAL,10 ALICE PECK DAY DRIVE,LEBANON,NH,3766,GENERAL ACUTE CARE,OPEN,25,GRAFTON,43.638447731,-72.286002567,NON-PROFIT,25,N
INTEGRIS GROVE HOSPITAL,1001 EAST 18TH STREET,GROVE,OK,74344,GENERAL ACUTE CARE,OPEN,58,DELAWARE,36.581287354,-94.758576687,NON-PROFIT,58,Y
LAKES REGION GENERAL HOSPITAL,80 HIGHLAND STREET,LACONIA,NH,3246,GENERAL ACUTE CARE,OPEN,137,BELKNAP,43.5285555460001,-71.4631810129999,NON-PROFIT,137,N
ACH BEHAVIORAL HEALTH AND WELLNESS SERVICES,821 FIELDCREST DRIVE,CAMBRIDGE,MD,21613,PSYCHIATRIC,OPEN,283,DORCHESTER,38.5494536260001,-76.0579912319999,NON-PROFIT,283,N
INTEGRIS BASS BAPTIST HEALTH CENTER,600 SOUTH MONROE STREET,ENID,OK,73702,GENERAL ACUTE CARE,OPEN,183,GARFIELD,36.3901652910001,-97.887425579,NON-PROFIT,183,Y
JACKSON COUNTY MEMORIAL HOSPITAL,1200 EAST PECAN STREET,ALTUS,OK,73521,GENERAL ACUTE CARE,OPEN,49,JACKSON,34.635239745,-99.31803877,GOVERNMENT - DISTRICT/AUTHORITY,49,Y
HASKELL COUNTY COMMUNITY HOSPITAL,401 NORTHWEST 'H' STREET,STIGLER,OK,74462,CRITICAL ACCESS,OPEN,25,HASKELL,35.2611650690001,-95.128751584,PROPRIETARY,25,N
ADVENTIST MIDWEST HEALTH DBA ADVENTIST HINSDALE HOSPITAL,120 NORTH OAK ST,HINSDALE,IL,60521,GENERAL ACUTE CARE,OPEN,277,DUPAGE,41.80591716,-87.9212213179999,NON-PROFIT,277,Y
ELMHURST MEMORIAL HOSPITAL,155 EAST BRUSH HILL ROAD,ELMHURST,IL,60126,GENERAL ACUTE CARE,OPEN,315,DUPAGE,41.863761991,-87.935579144,NON-PROFIT,315,Y
CENTRAL DUPAGE HOSPITAL,25 NORTH WINFIELD ROAD,WINFIELD,IL,60190,GENERAL ACUTE CARE,OPEN,344,DUPAGE,41.8735205630001,-88.155758695,NON-PROFIT,344,Y
ADVENTIST GLENOAKS HOSPITAL,701 WINTHROP AVENUE,GLENDALE HEIGHTS,IL,60139,GENERAL ACUTE CARE,OPEN,141,DUPAGE,41.9148248980001,-88.056976526,NON-PROFIT,141,Y
ALLIANCEHEALTH WOODWARD,900 17TH STREET,WOODWARD,OK,73801,GENERAL ACUTE CARE,OPEN,87,WOODWARD,36.4373979120001,-99.400337222,PROPRIETARY,87,Y
SUN BEHAVIORAL HEALTH,820 DOLWICK DRIVE,ERLANGER,KY,41018,PSYCHIATRIC,OPEN,197,KENTON,39.038841,-84.594436,PROPRIETARY,197,N
SOUTHWESTERN MEDICAL CENTER,5602 SW LEE BOULEVARD,LAWTON,OK,73505,GENERAL ACUTE CARE,OPEN,199,COMANCHE,34.592635247,-98.4627401929999,PROPRIETARY,199,Y
JIM TALIAFERRO COMMUNITY MENTAL HEALTH CENTER,602 SW 38TH STREET,LAWTON,OK,73505,PSYCHIATRIC,OPEN,30,COMANCHE,34.6031011850001,-98.438619278,GOVERNMENT - STATE,30,N
DRUMRIGHT REGIONAL HOSPITAL,610 W BYPASS,DRUMRIGHT,OK,74030,CRITICAL ACCESS,OPEN,15,CREEK,35.998106787,-96.605966608,PROPRIETARY,15,Y
STILLWATER MEDICAL CENTER,1323 WEST SIXTH AVENUE,STILLWATER,OK,74074,GENERAL ACUTE CARE,OPEN,117,PAYNE,36.115011098,-97.0751020659999,GOVERNMENT - DISTRICT/AUTHORITY,117,Y
CHOCTAW MEMORIAL HOSPITAL,1405 EAST KIRK STREET,HUGO,OK,74743,GENERAL ACUTE CARE,OPEN,34,CHOCTAW,34.0123720990001,-95.496650093,GOVERNMENT - DISTRICT/AUTHORITY,34,Y
NORMAN SPECIALTY HOSPITAL,1210 WEST ROBINSON STREET,NORMAN,OK,73069,LONG TERM CARE,CLOSED,50,CLEVELAND,35.2323598950001,-97.460152335,PROPRIETARY,50,N
ALLIANCEHEALTH SEMINOLE,2401 WRANGLER BOULEVARD,SEMINOLE,OK,74868,GENERAL ACUTE CARE,OPEN,32,SEMINOLE,35.244974991,-96.698409235,PROPRIETARY,32,Y
HILLCREST HOSPITAL SOUTH,8801 SOUTH 101ST EAST AVENUE,TULSA,OK,74133,GENERAL ACUTE CARE,OPEN,180,TULSA,36.035315504,-95.863559858,PROPRIETARY,180,Y
HILLCREST MEDICAL CENTER,1120 SOUTH UTICA,TULSA,OK,74104,GENERAL ACUTE CARE,OPEN,620,TULSA,36.147161182,-95.968510827,PROPRIETARY,620,Y
MERCY HOSPITAL ARDMORE,1011 14TH AVENUE NW,ARDMORE,OK,73401,GENERAL ACUTE CARE,OPEN,190,CARTER,34.1889675840001,-97.1408427539999,NON-PROFIT,190,Y
MERCY HOSPITAL HEALDTON,3462 HOSPITAL RD,HEALDTON,OK,73438,CRITICAL ACCESS,OPEN,22,CARTER,34.2228684200001,-97.4914664789999,NON-PROFIT,22,Y
AURORA MEDICAL CTR OSHKOSH,855 N WESTHAVEN DRIVE,OSHKOSH,WI,54904,GENERAL ACUTE CARE,OPEN,84,WINNEBAGO,44.0277467770001,-88.595218368,NON-PROFIT,84,Y
AURORA MEDICAL CENTER,975 PORT WASHINGTON ROAD,GRAFTON,WI,53024,GENERAL ACUTE CARE,OPEN,127,OZAUKEE,43.3236520900001,-87.928171536,NON-PROFIT,127,Y
LAUREATE PSYCHIATRIC CLINIC AND HOSPITAL,6655 SOUTH YALE AVENUE,TULSA,OK,74136,PSYCHIATRIC,OPEN,90,TULSA,36.0659550130001,-95.918593071,NON-PROFIT,90,N
HILLCREST HOSPITAL CLAREMORE,1202 NORTH MUSKOGEE PLACE,CLAREMORE,OK,74017,GENERAL ACUTE CARE,OPEN,81,ROGERS,36.3226445400001,-95.60467518,PROPRIETARY,81,Y
GREAT PLAINS REGIONAL MEDICAL CENTER,1801 WEST THIRD STREET,ELK CITY,OK,73644,GENERAL ACUTE CARE,OPEN,62,BECKHAM,35.413983063,-99.426251023,NON-PROFIT,62,Y
WAGONER COMMUNITY HOSPITAL,1200 WEST CHEROKEE STREET,WAGONER,OK,74467,GENERAL ACUTE CARE,OPEN,100,WAGONER,35.9615239550001,-95.392430503,GOVERNMENT - DISTRICT/AUTHORITY,100,Y
AURORA MEDICAL CENTER BAY AREA,3003 UNIVERSITY DR,MARINETTE,WI,54143,GENERAL ACUTE CARE,OPEN,55,MARINETTE,45.0719686800001,-87.617696527,NON-PROFIT,55,Y
MUSCOGEE (CREEK) NATION MEDICAL CENTER,1401 MORRIS DRIVE,OKMULGEE,OK,74447,GENERAL ACUTE CARE,OPEN,66,OKMULGEE,35.6111880240001,-95.952484996,NOT AVAILABLE,66,Y
AURORA MEDICAL CENTER SUMMIT,36500 AURORA DRIVE,SUMMIT,WI,53066,GENERAL ACUTE CARE,OPEN,117,WAUKESHA,43.0659120560001,-88.467578653,NON-PROFIT,117,Y
AURORA SHEBOYGAN MEMORIAL MEDICAL CTR,2629 N 7TH ST,SHEBOYGAN,WI,53083,GENERAL ACUTE CARE,OPEN,185,SHEBOYGAN,43.7733868460001,-87.709995072,NON-PROFIT,185,Y
SAINT FRANCIS HOSPITAL SOUTH,10501 EAST 91ST STREEET,TULSA,OK,74133,GENERAL ACUTE CARE,OPEN,96,TULSA,36.033582251,-95.857320101,NON-PROFIT,96,Y
DUNCAN REGIONAL HOSPITAL,1407 NORTH WHISENANT DRIVE,DUNCAN,OK,73534,GENERAL ACUTE CARE,OPEN,110,STEPHENS,34.5203175290001,-97.975948004,NON-PROFIT,110,Y
MERCY HOSPITAL ADA,430 NORTH MONTA VISTA,ADA,OK,74820,GENERAL ACUTE CARE,OPEN,144,PONTOTOC,34.7782702540001,-96.6333675769999,NON-PROFIT,144,Y
STARR REGIONAL MEDICAL CENTER ETOWAH,886 HIGHWAY 411 NORTH,ETOWAH,TN,37331,GENERAL ACUTE CARE,OPEN,72,MCMINN,35.3450986180001,-84.522719356,NON-PROFIT,72,Y
ANDROSCOGGIN VALLEY HOSPITAL,59 PAGE HILL RD,BERLIN,NH,3570,GENERAL ACUTE CARE,OPEN,25,COOS,44.486950902,-71.155253902,NON-PROFIT,25,Y
WEEKS MEDICAL CENTER,173 MIDDLE STREET,LANCASTER,NH,3584,GENERAL ACUTE CARE,OPEN,25,COOS,44.486230365,-71.554339929,NON-PROFIT,25,N
ST FRANCIS HOSPITAL,1215 FRANCISCAN DR,LITCHFIELD,IL,62056,CRITICAL ACCESS,OPEN,25,MONTGOMERY,39.1812135550001,-89.639055748,NON-PROFIT,25,Y
OSF HOLY FAMILY MEDICAL CENTER,1000 W HARLEM AVENUE,MONMOUTH,IL,61462,CRITICAL ACCESS,OPEN,23,WARREN,40.922252932,-90.658301335,NON-PROFIT,23,Y
MORRISON COMMUNITY HOSPITAL,303 N JACKSON STREET,MORRISON,IL,61270,CRITICAL ACCESS,OPEN,36,WHITESIDE,41.80893488,-89.957878082,GOVERNMENT - DISTRICT/AUTHORITY,36,Y
SARAH D CULBERTSON MEMORIAL HOSPITAL,238 SOUTH CONGRESS STREET,RUSHVILLE,IL,62681,CRITICAL ACCESS,OPEN,46,SCHUYLER,40.118162797,-90.5643155,GOVERNMENT - DISTRICT/AUTHORITY,46,N
ABRAHAM LINCOLN HOSPITAL,200 STAHLHUT DRIVE,LINCOLN,IL,62656,CRITICAL ACCESS,OPEN,25,LOGAN,40.1537865020001,-89.389893553,NON-PROFIT,25,Y
MASSAC MEMORIAL HOSPITAL,"28 CHICK STREET, PO BOX 850",METROPOLIS,IL,62960,CRITICAL ACCESS,OPEN,25,MASSAC,37.166374757,-88.740048665,GOVERNMENT - DISTRICT/AUTHORITY,25,N
PARIS COMMUNITY HOSPITAL,721 E COURT STREET,PARIS,IL,61944,CRITICAL ACCESS,OPEN,25,EDGAR,39.606840038,-87.677654702,NON-PROFIT,25,Y
CENTRAL PENINSULA GENERAL HOSPITAL,250 HOSPITAL PLACE,SOLDOTNA,AK,99669,GENERAL ACUTE CARE,OPEN,108,KENAI PENINSULA,60.493169052,-151.077826958,NON-PROFIT,108,Y
ATLANTA VA HEALTH MEDICAL CENTER,1670 CLAIRMONT ROAD,DECATUR,GA,30033,MILITARY,OPEN,466,DEKALB,33.801861,-84.311425,GOVERNMENT - FEDERAL,466,N
PIEDMONT ATHENS REGIONAL MED CENTER,1199 PRINCE AVENUE,ATHENS,GA,30606,GENERAL ACUTE CARE,OPEN,359,CLARKE,33.961292466,-83.397945072,NON-PROFIT,359,Y
BECKLEY ARH HOSPITAL,306 STANAFORD ROAD,BECKLEY,WV,25801,GENERAL ACUTE CARE,OPEN,173,RALEIGH,37.798832695,-81.168183745,NON-PROFIT,173,Y
OWENSBORO HEALTH,811 E PARRISH AVE,OWENSBORO,KY,42303,GENERAL ACUTE CARE,OPEN,-999,DAVIESS,37.766669,-87.100834,NON-PROFIT,-999,N
FAIRBANKS MEMORIAL HOSPITAL,1650 COWLES STREET,FAIRBANKS,AK,99701,GENERAL ACUTE CARE,OPEN,217,FAIRBANKS NORTH STAR,64.831744708,-147.739392817,NON-PROFIT,217,Y
MAT-SU REGIONAL MEDICAL CENTER,2500 S. WOODWORTH LOOP,PALMER,AK,99645,GENERAL ACUTE CARE,OPEN,74,MATANUSKA-SUSITNA,61.5628935770001,-149.258311157,PROPRIETARY,74,Y
PROVIDENCE VALDEZ MEDICAL CENTER,911 MEALS AVENUE,VALDEZ,AK,99686,GENERAL ACUTE CARE,OPEN,21,VALDEZ-CORDOVA,61.1365337820001,-146.346551668,GOVERNMENT - LOCAL,21,Y
MANIILAQ MEDICAL CENTER,436 5TH AVE.,KOTZEBUE,AK,99752,CRITICAL ACCESS,OPEN,17,NORTHWEST ARCTIC,66.8960016240001,-162.586826252,NON-PROFIT,17,N
MT EDGECUMBE HOSPITAL - SEARHC,222 TONGASS DRIVE,SITKA,AK,99835,CRITICAL ACCESS,OPEN,27,SITKA,57.051565564,-135.354876741,NON-PROFIT,27,N
MAURY REGIONAL HOSPITAL,1224 TROTWOOD AVENUE,COLUMBIA,TN,38401,GENERAL ACUTE CARE,OPEN,255,MAURY,35.6071638650001,-87.0668911079999,GOVERNMENT - LOCAL,255,N
WEST TENNESSEE HEALTHCARE NORTH HOSPITAL,367 HOSPITAL BLVD.,JACKSON,TN,38305,GENERAL ACUTE CARE,OPEN,152,MADISON,35.6844471110001,-88.854048475,PROPRIETARY,152,Y
GREAT FALLS CLINIC MEDICAL CENTER,1411 9TH ST SOUTH,GREAT FALLS,MT,59405,GENERAL ACUTE CARE,OPEN,19,CASCADE,47.489354518,-111.291352607,PROPRIETARY,19,N
WYOMING STATE HOSPITAL,831 HIGHWAY 150 SOUTH,EVANSTON,WY,82931,PSYCHIATRIC,OPEN,183,UINTA,41.2638287170001,-110.947098227,GOVERNMENT - STATE,183,N
HENRY COUNTY MEDICAL CENTER,301 TYSON AVENUE,PARIS,TN,38242,GENERAL ACUTE CARE,OPEN,142,HENRY,36.2965426920001,-88.310304585,GOVERNMENT - DISTRICT/AUTHORITY,142,Y
THE JAMES B. HAGGIN MEMORIAL HOSPITAL,464 LINDEN AVE.,HARRODSBURG,KY,40330,CRITICAL ACCESS,OPEN,25,MERCER,37.7570638770001,-84.848739113,NON-PROFIT,25,Y
METHODIST MEDICAL CENTER OF OAK RIDGE,990 OAK RIDGE TURNPIKE,OAK RIDGE,TN,37830,GENERAL ACUTE CARE,OPEN,301,ANDERSON,36.024545109,-84.245085527,NON-PROFIT,301,Y
ERLANGER BLEDSOE,71 WHEELERTOWN AVE,PIKEVILLE,TN,37367,GENERAL ACUTE CARE,OPEN,25,BLEDSOE,35.620685972,-85.190868827,GOVERNMENT - DISTRICT/AUTHORITY,25,Y
STARR REGIONAL MEDICAL CENTER,1114 W MADISON AVE,ATHENS,TN,37303,GENERAL ACUTE CARE,OPEN,190,MCMINN,35.4408149940001,-84.607352873,PROPRIETARY,190,Y
TRISTAR SKYLINE MEDICAL CENTER,3441 DICKERSON PIKE,NASHVILLE,TN,37207,GENERAL ACUTE CARE,OPEN,213,DAVIDSON,36.2453409300001,-86.7496189839999,PROPRIETARY,213,Y
KINDRED HOSPITAL - CHATTANOOGA,709 WALNUT STREET,CHATTANOOGA,TN,37402,LONG TERM CARE,OPEN,49,HAMILTON,35.0475781420001,-85.307706217,PROPRIETARY,49,N
ERLANGER MEDICAL CENTER,975 EAST THIRD STREET,CHATTANOOGA,TN,37403,GENERAL ACUTE CARE,OPEN,560,HAMILTON,35.0488941250001,-85.2900474479999,GOVERNMENT - DISTRICT/AUTHORITY,560,Y
NORTHCREST MEDICAL CENTER,100 NORTHCREST DRIVE,SPRINGFIELD,TN,37172,GENERAL ACUTE CARE,OPEN,109,ROBERTSON,36.478480081,-86.886901925,NON-PROFIT,109,Y
JELLICO MEDICAL CENTER,188 HOSPITAL LANE,JELLICO,TN,37762,GENERAL ACUTE CARE,OPEN,54,CAMPBELL,36.573701364,-84.128543594,NON-PROFIT,54,Y
JOHNSON CITY MEDICAL CENTER,400 NORTH STATE OF FRANKLIN ROAD,JOHNSON CITY,TN,37604,GENERAL ACUTE CARE,OPEN,585,WASHINGTON,36.307843099,-82.384562638,NON-PROFIT,585,Y
WILLIAMSON MEDICAL CENTER,4321 CAROTHERS PARKWAY,FRANKLIN,TN,37067,GENERAL ACUTE CARE,OPEN,185,WILLIAMSON,35.9161622550001,-86.819250043,GOVERNMENT - LOCAL,185,Y
"RIVERSIDE HOSPITAL OF LOUISIANA, INC.",13 HEYMAN LANE,ALEXANDRIA,LA,71306,LONG TERM CARE,OPEN,28,RAPIDES,31.3013320000001,-92.4873019999999,NOT AVAILABLE,28,N
RHEA MEDICAL CENTER,9400 RHEA COUNTY HIGHWAY,DAYTON,TN,37321,GENERAL ACUTE CARE,OPEN,25,RHEA,35.529101344,-84.981779456,GOVERNMENT - LOCAL,25,Y
SAINT THOMAS RUTHERFORD HOSPITAL,1700 MEDICAL CENTER PARKWAY,MURFREESBORO,TN,37129,GENERAL ACUTE CARE,OPEN,286,RUTHERFORD,35.860579123,-86.4250313759999,NON-PROFIT,286,Y
BRISTOL REGIONAL MEDICAL CENTER,1 MEDICAL PARK BOULEVARD,BRISTOL,TN,37620,GENERAL ACUTE CARE,OPEN,348,SULLIVAN,36.585516446,-82.256923265,NON-PROFIT,348,Y
HANCOCK COUNTY HOSPITAL,1519 MAIN STREET,SNEEDVILLE,TN,37869,CRITICAL ACCESS,OPEN,10,HANCOCK,36.533332982,-83.215108141,NON-PROFIT,10,Y
HOLSTON VALLEY MEDICAL CENTER,130 WEST RAVINE ROAD,KINGSPORT,TN,37660,GENERAL ACUTE CARE,OPEN,505,SULLIVAN,36.554103173,-82.554607246,NON-PROFIT,505,Y
COFFEY COUNTY HOSPITAL,801 NORTH 4TH STREET,BURLINGTON,KS,66839,GENERAL ACUTE CARE,OPEN,78,COFFEY,38.202271765,-95.7376996419999,GOVERNMENT - LOCAL,78,Y
STATEN ISLAND UNIVERSITY HOSPITAL - SOUTH,375 SEGUINE AVENUE,STATEN ISLAND,NY,10305,GENERAL ACUTE CARE,OPEN,206,RICHMOND,40.5165692800001,-74.1964660899999,NON-PROFIT,206,N
HOSP SAN CRISTOBAL,506 CARR ROAD,COTO LAUREL,PR,731,SPECIAL,OPEN,103,PONCE,18.0396748470001,-66.5474067279999,PROPRIETARY,103,N
OCHSNER REHABILITATION HOSPITAL,2614 JEFFERSON HWY,JEFFERSON,LA,70121,REHABILITATION,OPEN,56,JEFFERSON,29.9615421980001,-90.154221499,NOT AVAILABLE,56,N
SOUTH CENTRAL KS MED CENTER,6401 PATTERSON PARKWAY,ARKANSAS CITY,KS,67005,GENERAL ACUTE CARE,OPEN,37,COWLEY,37.132996817,-97.0385032889999,GOVERNMENT - LOCAL,37,Y
WILSON MEDICAL CENTER,REECE CAMPUS 2600 OTTAWA ROAD,NEODESHA,KS,66757,GENERAL ACUTE CARE,OPEN,15,WILSON,37.409570585,-95.708332152,GOVERNMENT - LOCAL,15,Y
THE UNIVERSITY OF KANSAS HEALTH SYSTEM GREAT BEND CAMPUS,514 CLEVELAND STREET,GREAT BEND,KS,67530,GENERAL ACUTE CARE,OPEN,33,BARTON,38.356165688,-98.790712688,PROPRIETARY,33,Y
COMMUNITY HOSPITAL ONAGA AND ST MARYS CAMPUS,120 WEST 8TH STREET,ONAGA,KS,66521,GENERAL ACUTE CARE,OPEN,159,POTTAWATOMIE,39.4959886030001,-96.171428067,NON-PROFIT,159,Y
AVAIL HEALTH LAKE CHARLES HOSPITAL,3730 NELSON ROAD,LAKE CHARLES,LA,70605,GENERAL ACUTE CARE,OPEN,10,CALCASIEU,30.190378373,-93.25037016,NOT AVAILABLE,10,N
HOSPITAL BUEN SAMARITANO,CARR 2 KM 141-1 AVE SEVERIANO CUEVAS 18 BO. CAIMITAL BAJO,AGUADILLA,PR,605,GENERAL ACUTE CARE,OPEN,154,AGUADILLA,18.442809336,-67.1508851099999,NON-PROFIT,154,N
HOSP BELLA VISTA,STATE ROAD 349,MAYAGUEZ,PR,681,GENERAL ACUTE CARE,OPEN,157,MAYAGUEZ,18.1867640090001,-67.119196771,NON-PROFIT,157,Y
HOSP DE LA CONCEPCION,CARR 2 KM 173 BO CAIN ALTO,SAN GERMAN,PR,683,GENERAL ACUTE CARE,OPEN,167,SAN GERMAN,18.0988091140001,-67.038164761,NON-PROFIT,167,Y
CENTRO DE SALUD INTEGRAL DE OROCOVIS,PR-155 AVE LUIS MUOZ MARIN,OROCOVIS PUEBLO,PR,720,GENERAL ACUTE CARE,OPEN,-999,OROCOVIS,18.226650998,-66.394345136,NOT AVAILABLE,-999,Y
HOSP GENERAL MENONITA - CAYEY,4 H MENDOZA STREET,CAYEY,PR,737,GENERAL ACUTE CARE,OPEN,208,CAYEY,18.1240463010001,-66.147481522,NON-PROFIT,208,N
ASHFORD PRESBYTERIAN COMMUNITY HOSPITAL INC,1451 AVENUE ASHFORD,SAN JUAN,PR,902,GENERAL ACUTE CARE,OPEN,195,SAN JUAN,18.4559932870001,-66.065469531,NON-PROFIT,195,N
MANATI MEDICAL CENTER DR ALEJANDRO OTERO LOPEZ,CALLE HERNANDEZ CARRION 668,MANATI PUEBLO,PR,674,GENERAL ACUTE CARE,OPEN,251,MANATI,18.4345543470001,-66.4824950999999,NOT AVAILABLE,251,N
ADMINISTRACION DE SERVICIOS MEDICOS DE PR (ASEM),CENTRO MEDICO,MONACILLO URBANO,PR,922,GENERAL ACUTE CARE,OPEN,68,SAN JUAN,18.3955074040001,-66.0728407889999,NOT AVAILABLE,68,Y
UTMB ANGLETON-DANBURY MEDICAL CENTER,132 EAST HOSPITAL DRIVE,ANGLETON,TX,77515,GENERAL ACUTE CARE,OPEN,64,BRAZORIA,29.183855399,-95.4054332869999,PROPRIETARY,64,Y
ST. DAVID'S MEDICAL CENTER,919 EAST 32ND STREET,AUSTIN,TX,78705,GENERAL ACUTE CARE,OPEN,350,TRAVIS,30.2898922050001,-97.7260463699999,NON-PROFIT,350,Y
MEDICAL CITY OF ARLINGTON,3301 MATLOCK ROAD,ARLINGTON,TX,76015,GENERAL ACUTE CARE,OPEN,342,TARRANT,32.6923253090001,-97.1127163799999,PROPRIETARY,342,Y
TEXAS HEALTH HARRIS METHODIST HOSPITAL AZLE,108 DENVER TRAIL,AZLE,TX,76020,GENERAL ACUTE CARE,OPEN,36,TARRANT,32.8809664820001,-97.533098647,NON-PROFIT,36,Y
HOUSTON METHODIST BAYTOWN HOSPITAL,4401 GARTH ROAD,BAYTOWN,TX,77521,GENERAL ACUTE CARE,OPEN,205,HARRIS,29.769116266,-94.979716606,NON-PROFIT,205,Y
MEMORIAL HERMANN ORTHOPEDIC AND SPINE HOSPITAL,5410 WEST LOOP SOUTH,BELLAIRE,TX,77401,GENERAL ACUTE CARE,OPEN,64,HARRIS,29.723805424,-95.4612190399999,NON-PROFIT,64,N
BAYSIDE COMMUNITY HOSPITAL,200 HOSPITAL DRIVE,ANAHUAC,TX,77514,GENERAL ACUTE CARE,OPEN,14,CHAMBERS,29.752557402,-94.687446673,GOVERNMENT - LOCAL,14,Y
NORTH AUSTIN MEDICAL CENTER,12221 MOPAC SERVICE ROAD,AUSTIN,TX,78758,GENERAL ACUTE CARE,OPEN,378,TRAVIS,30.4114880280001,-97.7062274049999,NON-PROFIT,378,Y
ST. MARY'S HOSPITAL - DBA SSM HEALTH ST. MARY'S HOSPITAL - CENTRALIA,400 NORTH PLEASANT AVENUE,CENTRALIA,IL,62801,GENERAL ACUTE CARE,OPEN,113,MARION,38.530281432,-89.117206305,NON-PROFIT,113,Y
HOSP ONCOLOGICO DR ISAAC GONZALEZ MARTINEZ,CENTRO MEDICO,MONACILLO URBANO,PR,919,GENERAL ACUTE CARE,OPEN,143,SAN JUAN,18.3963367280001,-66.072533977,NOT AVAILABLE,143,Y
HIMA SAN PABLO CUPEY,138 AVENUE WINSTON CHURCHILL,SAN JUAN,PR,926,SPECIAL,OPEN,60,SAN JUAN,18.372592346,-66.046225433,NON-PROFIT,60,N
UNION CORRECTIONAL INSTITUTE HOSPITAL,7819 NW 228TH ST,RAIFORD,FL,32026,SPECIAL,OPEN,59,UNION,30.0670519110001,-82.193850377,NOT AVAILABLE,59,N
WINNIE PALMER HOSPITAL FOR WOMEN & BABIES,83 W MILLER ST,ORLANDO,FL,32806,GENERAL ACUTE CARE,OPEN,285,ORANGE,28.5243398650001,-81.379153603,NOT AVAILABLE,285,Y
WEST FLORIDA REHABILITATION INSTITUTE,8383 N DAVIS HWY,PENSACOLA,FL,32514,REHABILITATION,OPEN,58,ESCAMBIA,30.5163401230001,-87.216863022,NOT AVAILABLE,58,Y
ST JOSEPH'S WOMEN'S HOSPITAL,3030 W DR ML KING JR BLVD,TAMPA,FL,33607,GENERAL ACUTE CARE,OPEN,-999,HILLSBOROUGH,27.980230884,-82.492208722,NON-PROFIT,-999,Y
EASTLAND MEMORIAL HOSPITAL,304 SOUTH DAUGHERTY AVENUE,EASTLAND,TX,76448,GENERAL ACUTE CARE,OPEN,52,EASTLAND,32.3998206380001,-98.8211424789999,GOVERNMENT - DISTRICT/AUTHORITY,52,Y
THE HOSPITALS OF PROVIDENCE EAST CAMPUS,3280 JOE BATTLE BOULEVARD,EL PASO,TX,79938,GENERAL ACUTE CARE,OPEN,182,EL PASO,31.7903706280001,-106.264505532,PROPRIETARY,182,Y
FREESTONE MEDICAL CENTER,125 NEWMAN STREET,FAIRFIELD,TX,75840,GENERAL ACUTE CARE,OPEN,37,FREESTONE,31.725343744,-96.1705982349999,NON-PROFIT,37,Y
CONNALLY MEMORIAL MEDICAL CENTER,499 10TH STREET,FLORESVILLE,TX,78114,GENERAL ACUTE CARE,OPEN,44,WILSON,29.158500631,-98.174972586,GOVERNMENT - DISTRICT/AUTHORITY,44,Y
BAYLOR SURGICAL HOSPITAL AT FORT WORTH,750 12TH AVENUE,FORT WORTH,TX,76104,GENERAL ACUTE CARE,OPEN,34,TARRANT,32.7368576390001,-97.348979463,PROPRIETARY,34,N
BAYLOR SCOTT & WHITE MEDICAL CENTER - FRISCO,5601 WARREN PARKWAY,FRISCO,TX,75034,GENERAL ACUTE CARE,OPEN,68,COLLIN,33.104490212,-96.837825316,PROPRIETARY,68,N
NORTH TEXAS MEDICAL CENTER,1900 HOSPITAL BOULEVARD,GAINESVILLE,TX,76240,GENERAL ACUTE CARE,OPEN,60,COOKE,33.6463626400001,-97.1627319,GOVERNMENT - DISTRICT/AUTHORITY,60,Y
HILL COUNTRY MEMORIAL HOSPITAL,1020 STATE HIGHWAY 16,FREDERICKSBURG,TX,78624,GENERAL ACUTE CARE,OPEN,86,GILLESPIE,30.2625189980001,-98.881843268,NON-PROFIT,86,Y
HUNT REGIONAL MEDICAL CENTER GREENVILLE,4215 JOE RAMSEY BOULEVARD,GREENVILLE,TX,75401,GENERAL ACUTE CARE,OPEN,192,HUNT,33.122314078,-96.123970743,GOVERNMENT - DISTRICT/AUTHORITY,192,Y
GRAHAM HOSPITAL DISTRICT,1301 MONTGOMERY ROAD,GRAPEVINE,TX,76450,GENERAL ACUTE CARE,OPEN,42,YOUNG,33.0895821120001,-98.583967424,GOVERNMENT - LOCAL,42,Y
LAVACA MEDICAL CENTER,1400 NORTH TEXANA STREET,HARLINGEN,TX,77964,GENERAL ACUTE CARE,OPEN,25,LAVACA,29.4574026650001,-96.938212833,GOVERNMENT - DISTRICT/AUTHORITY,25,Y
MEDINA REGIONAL HOSPITAL,3100 AVENUE E,HONDO,TX,78861,GENERAL ACUTE CARE,OPEN,25,MEDINA,29.3346229570001,-99.134482544,GOVERNMENT - DISTRICT/AUTHORITY,25,N
CHI ST LUKES HEALTH BAYLOR COLLEGE OF MEDICINE MEDICAL CENTER,6720 BERTNER STREET,GRANBURY,TX,77030,GENERAL ACUTE CARE,OPEN,864,HARRIS,29.7077311640001,-95.4004449719999,NON-PROFIT,864,Y
MEMORIAL HERMANN NORTHEAST HOSPITAL,18951 MEMORIAL NORTH,HUMBLE,TX,77338,GENERAL ACUTE CARE,OPEN,255,HARRIS,29.995512041,-95.2761288889999,NON-PROFIT,255,Y
CHRISTUS JASPER MEMORIAL HOSPITAL,1275 MARVIN HANCOCK DRIVE,JASPER,TX,75951,GENERAL ACUTE CARE,OPEN,59,JASPER,30.9078945300001,-94.009553306,NON-PROFIT,59,Y
KIMBLE HOSPITAL,349 REID RD,JUNCTION,TX,76849,GENERAL ACUTE CARE,OPEN,15,KIMBLE,30.498473076,-99.7805609119999,PROPRIETARY,15,Y
MEMORIAL HERMANN KATY HOSPITAL,23900 KATY FREEWAY,KATY,TX,77494,GENERAL ACUTE CARE,OPEN,208,HARRIS,29.787310995,-95.786254532,NON-PROFIT,208,Y
PETERSON REGIONAL MEDICAL CENTER,551 HILL COUNTRY DIRVE,KERRVILLE,TX,78028,GENERAL ACUTE CARE,OPEN,124,KERR,30.043465994,-99.152868896,NON-PROFIT,124,Y
ASCENSION SETON MEDICAL CENTER HAYS,6001 KYLE PARKWAY,KYLE,TX,78640,GENERAL ACUTE CARE,OPEN,112,HAYS,30.0084099860001,-97.852977451,NON-PROFIT,112,Y
COVENANT HOSPITAL LEVELLAND,1900 COLLEGE AVENUE,LEVELLAND,TX,79336,GENERAL ACUTE CARE,OPEN,48,HOCKLEY,33.572686515,-102.368897211,NON-PROFIT,48,Y
BAYLOR SCOTT & WHITE MEDICAL CENTER - LLANO,200 W OLLIE ST,LLANO,TX,78643,GENERAL ACUTE CARE,OPEN,30,LLANO,30.742649623,-98.677655751,NON-PROFIT,30,Y
CHRISTUS GOOD SHEPHERD MEDICAL CENTER - LONGVIEW,700 EAST MARSHALL AVENUE,LONGVIEW,TX,75601,GENERAL ACUTE CARE,OPEN,425,GREGG,32.500749856,-94.7298539939999,NON-PROFIT,425,Y
METHODIST MCKINNEY HOSPITAL,8000 WEST ELDORADO PARKWAY,MCKINNEY,TX,75070,GENERAL ACUTE CARE,OPEN,23,COLLIN,33.176525285,-96.722295801,PROPRIETARY,23,N
MISSION REGIONAL MEDICAL CENTER,900 SOUTH BRYAN ROAD,MISSION,TX,78572,GENERAL ACUTE CARE,OPEN,297,HIDALGO,26.1963482040001,-98.314317224,NON-PROFIT,297,Y
TITUS REGIONAL MEDICAL CENTER,2001 NORTH JEFFERSON AVENUE,MOUNT PLEASANT,TX,75455,GENERAL ACUTE CARE,OPEN,164,TITUS,33.175599387,-94.971174939,GOVERNMENT - DISTRICT/AUTHORITY,164,Y
HOUSTON METHODIST CLEAR LAKE HOSPITAL,18300 HOUSTON METHODIST DRIVE,NASSAU BAY,TX,77058,GENERAL ACUTE CARE,OPEN,178,HARRIS,29.549248517,-95.086763633,NON-PROFIT,178,Y
NACOGDOCHES MEDICAL CENTER,4920 N. E. STALLINGS DRIVE,NACOGDOCHES,TX,75965,GENERAL ACUTE CARE,OPEN,153,NACOGDOCHES,31.653144314,-94.653873115,PROPRIETARY,153,Y
SAINT CLARE'S HOSPITAL,915 EAST 5TH STREET,ALTON,IL,62002,GENERAL ACUTE CARE,CLOSED,-999,MADISON,38.8908049620001,-90.170929284,NOT AVAILABLE,-999,N
ODESSA REGIONAL MEDICAL CENTER SOUTH CAMPUS,900 EAST 4TH STREET,ODESSA,TX,79761,GENERAL ACUTE CARE,OPEN,14,ECTOR,31.85173303,-102.359572789,PROPRIETARY,14,N
PALESTINE REGIONAL MEDICAL CENTER,2900 SOUTH LOOP 256,PALESTINE,TX,75801,GENERAL ACUTE CARE,OPEN,86,ANDERSON,31.7325966830001,-95.627227561,PROPRIETARY,86,Y
PARIS REGIONAL MEDICAL CENTER - SOUTH CAMPUS,820 CLARKSVILLE STREET,PARIS,TX,75460,GENERAL ACUTE CARE,CLOSED,214,LAMAR,33.6596691980001,-95.547228929,PROPRIETARY,214,Y
GOOD SHEPHERD MEDICAL CENTER - LINDEN,404 NORTH KAUFMAN STREET,LINDEN,TX,75563,GENERAL ACUTE CARE,CLOSED,25,CASS,33.0139875080001,-94.3638835789999,NON-PROFIT,25,Y
PAMPA REGIONAL MEDICAL CENTER,ONE MEDICAL PLAZA,PAMPA,TX,79065,GENERAL ACUTE CARE,OPEN,115,GRAY,35.5724721620001,-100.964796468,PROPRIETARY,115,Y
HCA HOUSTON HEALTHCARE SOUTHEAST,4000 SPENCER HIGHWAY,PASADENA,TX,77504,GENERAL ACUTE CARE,OPEN,350,HARRIS,29.661060268,-95.183814699,PROPRIETARY,350,Y
SURGERY SPECIALTY HOSPITALS OF AMERICA SOUTHEAST HOUSTON,4301-B VISTA RD.,PASADENA,TX,77504,GENERAL ACUTE CARE,OPEN,37,HARRIS,29.65912193,-95.177956514,PROPRIETARY,37,N
ST. LUKE'S PATIENTS MEDICAL CENTER,4600 EAST SAM HOUSTON PARKWAY SOUTH,PASADENA,TX,77505,GENERAL ACUTE CARE,OPEN,61,HARRIS,29.6410979360001,-95.162214403,PROPRIETARY,61,Y
COVENANT HOSPITAL PLAINVIEW,2601 DIMMITT ROAD,PLAINVIEW,TX,79072,GENERAL ACUTE CARE,OPEN,68,HALE,34.206756715,-101.73294565,NON-PROFIT,68,Y
REEVES COUNTY HOSPITAL,2323 TEXAS STREET,PECOS,TX,79772,GENERAL ACUTE CARE,OPEN,25,REEVES,31.40118876,-103.514029758,GOVERNMENT - DISTRICT/AUTHORITY,25,Y
TEXAS HEALTH PRESBYTERIAN HOSPITAL PLANO,6200 WEST PARKER ROAD,PLANO,TX,75093,GENERAL ACUTE CARE,OPEN,366,COLLIN,33.0436635520001,-96.836470947,NON-PROFIT,366,Y
FRIO REGIONAL HOSPITAL,200 IH 35 SOUTH,PEARSALL,TX,78061,GENERAL ACUTE CARE,OPEN,22,FRIO,28.8963046480001,-99.117257195,GOVERNMENT - DISTRICT/AUTHORITY,22,Y
METHODIST RICHARDSON MEDICAL CENTER,401 WEST CAMPBELL ROAD,RICHARDSON,TX,75080,GENERAL ACUTE CARE,OPEN,209,DALLAS,32.974316527,-96.7266011149999,GOVERNMENT - DISTRICT/AUTHORITY,209,Y
OAKBEND MEDICAL CENTER,1705 JACKSON STREET,RICHMOND,TX,77469,GENERAL ACUTE CARE,OPEN,168,FORT BEND,29.5763288420001,-95.7709370219999,GOVERNMENT - DISTRICT/AUTHORITY,168,Y
BAYLOR SCOTT & WHITE MEDICAL CENTER - ROUND ROCK,300 UNIVERSITY BLVD,ROUND ROCK,TX,78665,GENERAL ACUTE CARE,OPEN,101,WILLIAMSON,30.563395843,-97.684782286,NON-PROFIT,101,Y
BAYLOR SCOTT & WHITE MEDICAL CENTER - LAKE POINTE,6800 SCENIC DRIVE,ROWLETT,TX,75088,GENERAL ACUTE CARE,OPEN,112,ROCKWALL,32.918019332,-96.508719073,PROPRIETARY,112,Y
VALLEY WEST COMMUNITY HOSPITAL,1302 NORTH MAIN STREET,SANDWICH,IL,60548,CRITICAL ACCESS,OPEN,24,DEKALB,41.657190128,-88.6207348189999,NON-PROFIT,24,Y
SOUTHWEST GENERAL HOSPITAL,7400 BARLITE BOULEVARD,SAN ANTONIO,TX,78224,GENERAL ACUTE CARE,OPEN,327,BEXAR,29.3535371450001,-98.5447077169999,PROPRIETARY,327,Y
FOUNDATION SURGICAL HOSPITAL OF SAN ANTONIO,9522 HUEBNER ROAD,SAN ANTONIO,TX,78240,GENERAL ACUTE CARE,OPEN,20,BEXAR,29.5302401050001,-98.589751317,PROPRIETARY,20,N
METHODIST STONE OAK HOSPITAL,1139 EAST SONTERRA BOULEVARD,SAN ANTONIO,TX,78258,GENERAL ACUTE CARE,OPEN,140,BEXAR,29.6158622130001,-98.474434773,PROPRIETARY,140,Y
METHODIST TEXSAN HOSPITAL,6700 IH 10 WEST,SAN ANTONIO,TX,78201,GENERAL ACUTE CARE,OPEN,120,BEXAR,29.4898639890001,-98.547572582,PROPRIETARY,120,Y
BAPTIST HEALTH MADISONVILLE,900 HOSPITAL DRIVE,MADISONVILLE,KY,42431,GENERAL ACUTE CARE,OPEN,390,HOPKINS,37.340597841,-87.493349446,PROPRIETARY,390,Y
ADVENTIST HEALTHCARE SHADY GROVE MEDICAL CENTER,9901 MEDICAL CENTER DRIVE,ROCKVILLE,MD,20850,GENERAL ACUTE CARE,OPEN,256,MONTGOMERY,39.097844137,-77.197904227,NON-PROFIT,256,Y
WILSON N JONES REGIONAL MEDICAL CENTER,500 NORTH HIGHLAND AVENUE,SHERMAN,TX,75092,GENERAL ACUTE CARE,OPEN,202,GRAYSON,33.6370973860001,-96.623821654,NON-PROFIT,202,Y
MEMORIAL HERMANN THE WOODLANDS HOSPITAL,9250 PINECROFT DRIVE,THE WOODLANDS,TX,77380,GENERAL ACUTE CARE,OPEN,351,MONTGOMERY,30.1743354450001,-95.454341996,NON-PROFIT,351,Y
HCA HOUSTON HEALTHCARE TOMBALL,605 HOLDERRIETH BOULEVARD,TOMBALL,TX,77375,GENERAL ACUTE CARE,OPEN,358,HARRIS,30.087304078,-95.623695582,GOVERNMENT - DISTRICT/AUTHORITY,358,Y
EAST TEXAS MEDICAL CENTER TRINITY,317 PROSPECT DRIVE,TRINITY,TX,75862,GENERAL ACUTE CARE,CLOSED,45,TRINITY,30.9568636700001,-95.381049229,NON-PROFIT,45,Y
UVALDE MEMORIAL HOSPITAL,1025 GARNER FIELD ROAD,UVALDE,TX,78801,GENERAL ACUTE CARE,OPEN,25,UVALDE,29.2141196690001,-99.767837207,GOVERNMENT - DISTRICT/AUTHORITY,25,Y
ASCENSION PROVIDENCE,6901 MEDICAL PARKWAY,WACO,TX,76712,GENERAL ACUTE CARE,OPEN,237,MCLENNAN,31.5142506550001,-97.199490968,NON-PROFIT,237,Y
HOUSTON PHYSICIANS' HOSPITAL,333 NORTH TEXAS AVENUE,WEBSTER,TX,77598,GENERAL ACUTE CARE,OPEN,21,HARRIS,29.5338492720001,-95.126193077,PROPRIETARY,21,N
PARKVIEW HOSPITAL,901 SOUTH SWEETWATER STREET,WHEELER,TX,79096,GENERAL ACUTE CARE,OPEN,16,WHEELER,35.4393396090001,-100.270359689,GOVERNMENT - DISTRICT/AUTHORITY,16,Y
NORTH RUNNELS HOSPITAL,7821 TEXAS 153,WINTERS,TX,79567,GENERAL ACUTE CARE,OPEN,25,RUNNELS,31.949221514,-99.95913544,GOVERNMENT - DISTRICT/AUTHORITY,25,Y
BAYLOR MEDICAL CENTER AT UPTOWN,2727 EAST LEMMON AVENUE,DALLAS,TX,75204,GENERAL ACUTE CARE,OPEN,24,DALLAS,32.8042463780001,-96.7949549529999,PROPRIETARY,24,N
BAYLOR SCOTT & WHITE MEDICAL CENTER - MCKINNEY,5252 WEST UNIVERSITY DRIVE,MCKINNEY,TX,75071,GENERAL ACUTE CARE,OPEN,143,COLLIN,33.2209716130001,-96.6826010199999,NON-PROFIT,143,Y
HOUSTON METHODIST WEST HOSPITAL,18500 KATY FREEWAY,HOUSTON,TX,77094,GENERAL ACUTE CARE,OPEN,193,HARRIS,29.7871566220001,-95.697828078,NON-PROFIT,193,Y
CHRISTUS ST VINCENT REGIONAL MEDICAL CENTER,455 ST MICHAELS DRIVE,SANTA FE,NM,87505,GENERAL ACUTE CARE,OPEN,200,SANTA FE,35.6594409860001,-105.945780485,NON-PROFIT,200,Y
HOUSTON METHODIST HOSPTIAL,6565 FANNIN STREET,HOUSTON,TX,77030,GENERAL ACUTE CARE,OPEN,1128,HARRIS,29.7105231410001,-95.398938882,NON-PROFIT,1128,Y
HOUSTON METHODIST WILLOWBROOK HOSPITAL,18220 STATE HIGHWAY 249,HOUSTON,TX,77070,GENERAL ACUTE CARE,OPEN,313,HARRIS,29.9664687710001,-95.551144526,NON-PROFIT,313,Y
